$GPGGA,123519,181.459000,N,06710.443000,W,2,10,0.6,791.6,M,-32.8,M,,*47
$SDDBT,5.000000,f,1.520000,M,0.830000,F*3E
$GPGGA,123520,181.440000,N,06710.433000,W,2,10,0.6,791.6,M,-32.8,M,,*42
$SDDBT,7.000000,f,2.130000,M,1.170000,F*36
$GPGGA,123521,181.418000,N,06710.423000,W,2,10,0.6,791.6,M,-32.8,M,,*4F
$SDDBT,7.000000,f,2.130000,M,1.170000,F*36
$GPGGA,123522,181.393000,N,06710.407000,W,2,10,0.6,791.6,M,-32.8,M,,*4E
$SDDBT,9.000000,f,2.740000,M,1.500000,F*3A
$GPGGA,123523,181.369000,N,06710.397000,W,2,10,0.6,791.6,M,-32.8,M,,*44
$SDDBT,8.000000,f,2.440000,M,1.330000,F*3D
$GPGGA,123524,181.344000,N,06710.395000,W,2,10,0.6,791.6,M,-32.8,M,,*4E
$SDDBT,8.000000,f,2.440000,M,1.330000,F*3D
$GPGGA,123525,181.315000,N,06710.389000,W,2,10,0.6,791.6,M,-32.8,M,,*46
$SDDBT,9.000000,f,2.740000,M,1.500000,F*3A
$GPGGA,123526,181.278000,N,06710.384000,W,2,10,0.6,791.6,M,-32.8,M,,*42
$SDDBT,9.000000,f,2.740000,M,1.500000,F*3A
$GPGGA,123527,181.256000,N,06710.384000,W,2,10,0.6,791.6,M,-32.8,M,,*4F
$SDDBT,10.000000,f,3.050000,M,1.670000,F*1
$GPGGA,123528,181.217000,N,06710.384000,W,2,10,0.6,791.6,M,-32.8,M,,*45
$SDDBT,7.000000,f,2.130000,M,1.170000,F*36
$GPGGA,123529,181.185000,N,06710.382000,W,2,10,0.6,791.6,M,-32.8,M,,*4A
$SDDBT,6.000000,f,1.830000,M,1.000000,F*3B
$GPGGA,123530,181.153000,N,06710.379000,W,2,10,0.6,791.6,M,-32.8,M,,*4D
$SDDBT,7.000000,f,2.130000,M,1.170000,F*36
$GPGGA,123531,181.112000,N,06710.379000,W,2,10,0.6,791.6,M,-32.8,M,,*49
$SDDBT,7.000000,f,2.130000,M,1.170000,F*36
$GPGGA,123532,181.077000,N,06710.387000,W,2,10,0.6,791.6,M,-32.8,M,,*49
$SDDBT,8.000000,f,2.440000,M,1.330000,F*3D
$GPGGA,123533,181.043000,N,06710.387000,W,2,10,0.6,791.6,M,-32.8,M,,*4F
$SDDBT,10.000000,f,3.050000,M,1.670000,F*1
$GPGGA,123534,181.011000,N,06710.395000,W,2,10,0.6,791.6,M,-32.8,M,,*4C
$SDDBT,11.000000,f,3.350000,M,1.830000,F*9
$GPGGA,123535,180.982000,N,06710.400000,W,2,10,0.6,791.6,M,-32.8,M,,*44
$SDDBT,11.000000,f,3.350000,M,1.830000,F*9
$GPGGA,123536,180.950000,N,06710.405000,W,2,10,0.6,791.6,M,-32.8,M,,*4D
$SDDBT,10.000000,f,3.050000,M,1.670000,F*1
$GPGGA,123537,180.921000,N,06710.415000,W,2,10,0.6,791.6,M,-32.8,M,,*4B
$SDDBT,10.000000,f,3.050000,M,1.670000,F*1
$GPGGA,123538,180.891000,N,06710.418000,W,2,10,0.6,791.6,M,-32.8,M,,*43
$SDDBT,10.000000,f,3.050000,M,1.670000,F*1
$GPGGA,123539,180.864000,N,06710.420000,W,2,10,0.6,791.6,M,-32.8,M,,*43
$SDDBT,10.000000,f,3.050000,M,1.670000,F*1
$GPGGA,123540,180.840000,N,06710.431000,W,2,10,0.6,791.6,M,-32.8,M,,*4B
$SDDBT,10.000000,f,3.050000,M,1.670000,F*1
$GPGGA,123541,180.806000,N,06710.449000,W,2,10,0.6,791.6,M,-32.8,M,,*47
$SDDBT,10.000000,f,3.050000,M,1.670000,F*1
$GPGGA,123542,180.781000,N,06710.456000,W,2,10,0.6,791.6,M,-32.8,M,,*4A
$SDDBT,9.000000,f,2.740000,M,1.500000,F*3A
$GPGGA,123543,180.759000,N,06710.477000,W,2,10,0.6,791.6,M,-32.8,M,,*4D
$SDDBT,9.000000,f,2.740000,M,1.500000,F*3A
$GPGGA,123544,180.735000,N,06710.495000,W,2,10,0.6,791.6,M,-32.8,M,,*4C
$SDDBT,8.000000,f,2.440000,M,1.330000,F*3D
$GPGGA,123545,180.703000,N,06710.521000,W,2,10,0.6,791.6,M,-32.8,M,,*46
$SDDBT,9.000000,f,2.740000,M,1.500000,F*3A
$GPGGA,123546,180.688000,N,06710.536000,W,2,10,0.6,791.6,M,-32.8,M,,*41
$SDDBT,8.000000,f,2.440000,M,1.330000,F*3D
$GPGGA,123547,180.688000,N,06710.560000,W,2,10,0.6,791.6,M,-32.8,M,,*43
$SDDBT,9.000000,f,2.740000,M,1.500000,F*3A
$GPGGA,123548,180.703000,N,06710.545000,W,2,10,0.6,791.6,M,-32.8,M,,*49
$SDDBT,9.000000,f,2.740000,M,1.500000,F*3A
$GPGGA,123549,180.735000,N,06710.519000,W,2,10,0.6,791.6,M,-32.8,M,,*44
$SDDBT,8.000000,f,2.440000,M,1.330000,F*3D
$GPGGA,123550,180.759000,N,06710.501000,W,2,10,0.6,791.6,M,-32.8,M,,*4F
$SDDBT,8.000000,f,2.440000,M,1.330000,F*3D
$GPGGA,123551,180.781000,N,06710.480000,W,2,10,0.6,791.6,M,-32.8,M,,*43
$SDDBT,9.000000,f,2.740000,M,1.500000,F*3A
$GPGGA,123552,180.806000,N,06710.473000,W,2,10,0.6,791.6,M,-32.8,M,,*4C
$SDDBT,9.000000,f,2.740000,M,1.500000,F*3A
$GPGGA,123553,180.840000,N,06710.455000,W,2,10,0.6,791.6,M,-32.8,M,,*4B
$SDDBT,10.000000,f,3.050000,M,1.670000,F*1
$GPGGA,123554,180.864000,N,06710.444000,W,2,10,0.6,791.6,M,-32.8,M,,*4A
$SDDBT,10.000000,f,3.050000,M,1.670000,F*1
$GPGGA,123555,180.891000,N,06710.442000,W,2,10,0.6,791.6,M,-32.8,M,,*47
$SDDBT,10.000000,f,3.050000,M,1.670000,F*1
$GPGGA,123556,180.921000,N,06710.439000,W,2,10,0.6,791.6,M,-32.8,M,,*42
$SDDBT,10.000000,f,3.050000,M,1.670000,F*1
$GPGGA,123557,180.950000,N,06710.429000,W,2,10,0.6,791.6,M,-32.8,M,,*44
$SDDBT,10.000000,f,3.050000,M,1.670000,F*1
$GPGGA,123558,180.982000,N,06710.424000,W,2,10,0.6,791.6,M,-32.8,M,,*49
$SDDBT,10.000000,f,3.050000,M,1.670000,F*1
$GPGGA,123559,181.011000,N,06710.419000,W,2,10,0.6,791.6,M,-32.8,M,,*44
$SDDBT,10.000000,f,3.050000,M,1.670000,F*1
$GPGGA,123560,181.043000,N,06710.411000,W,2,10,0.6,791.6,M,-32.8,M,,*41
$SDDBT,9.000000,f,2.740000,M,1.500000,F*3A
$GPGGA,123561,181.077000,N,06710.411000,W,2,10,0.6,791.6,M,-32.8,M,,*47
$SDDBT,10.000000,f,3.050000,M,1.670000,F*1
$GPGGA,123562,181.112000,N,06710.403000,W,2,10,0.6,791.6,M,-32.8,M,,*45
$SDDBT,10.000000,f,3.050000,M,1.670000,F*1
$GPGGA,123563,181.153000,N,06710.403000,W,2,10,0.6,791.6,M,-32.8,M,,*41
$SDDBT,9.000000,f,2.740000,M,1.500000,F*3A
$GPGGA,123564,181.185000,N,06710.406000,W,2,10,0.6,791.6,M,-32.8,M,,*48
$SDDBT,7.000000,f,2.130000,M,1.170000,F*36
$GPGGA,123565,181.217000,N,06710.408000,W,2,10,0.6,791.6,M,-32.8,M,,*4F
$SDDBT,10.000000,f,3.050000,M,1.670000,F*1
$GPGGA,123566,181.256000,N,06710.408000,W,2,10,0.6,791.6,M,-32.8,M,,*49
$SDDBT,10.000000,f,3.050000,M,1.670000,F*1
$GPGGA,123567,181.278000,N,06710.408000,W,2,10,0.6,791.6,M,-32.8,M,,*44
$SDDBT,10.000000,f,3.050000,M,1.670000,F*1
$GPGGA,123568,181.315000,N,06710.413000,W,2,10,0.6,791.6,M,-32.8,M,,*4B
$SDDBT,10.000000,f,3.050000,M,1.670000,F*1
$GPGGA,123569,181.344000,N,06710.419000,W,2,10,0.6,791.6,M,-32.8,M,,*44
$SDDBT,9.000000,f,2.740000,M,1.500000,F*3A
$GPGGA,123570,181.369000,N,06710.421000,W,2,10,0.6,791.6,M,-32.8,M,,*48
$SDDBT,9.000000,f,2.740000,M,1.500000,F*3A
$GPGGA,123571,181.393000,N,06710.431000,W,2,10,0.6,791.6,M,-32.8,M,,*4D
$SDDBT,9.000000,f,2.740000,M,1.500000,F*3A
$GPGGA,123572,181.418000,N,06710.447000,W,2,10,0.6,791.6,M,-32.8,M,,*4B
$SDDBT,8.000000,f,2.440000,M,1.330000,F*3D
$GPGGA,123573,181.440000,N,06710.457000,W,2,10,0.6,791.6,M,-32.8,M,,*46
$SDDBT,9.000000,f,2.740000,M,1.500000,F*3A
$GPGGA,123574,181.459000,N,06710.467000,W,2,10,0.6,791.6,M,-32.8,M,,*4A
$SDDBT,4.000000,f,1.220000,M,0.670000,F*32
$GPGGA,123575,181.459000,N,06710.491000,W,2,10,0.6,791.6,M,-32.8,M,,*42
$SDDBT,1.000000,f,0.300000,M,0.170000,F*32
$GPGGA,123576,181.440000,N,06710.481000,W,2,10,0.6,791.6,M,-32.8,M,,*48
$SDDBT,8.000000,f,2.440000,M,1.330000,F*3D
$GPGGA,123577,181.418000,N,06710.471000,W,2,10,0.6,791.6,M,-32.8,M,,*4B
$SDDBT,9.000000,f,2.740000,M,1.500000,F*3A
$GPGGA,123578,181.393000,N,06710.455000,W,2,10,0.6,791.6,M,-32.8,M,,*46
$SDDBT,10.000000,f,3.050000,M,1.670000,F*1
$GPGGA,123579,181.369000,N,06710.445000,W,2,10,0.6,791.6,M,-32.8,M,,*43
$SDDBT,10.000000,f,3.050000,M,1.670000,F*1
$GPGGA,123580,181.344000,N,06710.443000,W,2,10,0.6,791.6,M,-32.8,M,,*4C
$SDDBT,11.000000,f,3.350000,M,1.830000,F*9
$GPGGA,123581,181.315000,N,06710.437000,W,2,10,0.6,791.6,M,-32.8,M,,*4A
$SDDBT,10.000000,f,3.050000,M,1.670000,F*1
$GPGGA,123582,181.278000,N,06710.432000,W,2,10,0.6,791.6,M,-32.8,M,,*46
$SDDBT,10.000000,f,3.050000,M,1.670000,F*1
$GPGGA,123583,181.256000,N,06710.432000,W,2,10,0.6,791.6,M,-32.8,M,,*4B
$SDDBT,10.000000,f,3.050000,M,1.670000,F*1
$GPGGA,123584,181.217000,N,06710.432000,W,2,10,0.6,791.6,M,-32.8,M,,*49
$SDDBT,10.000000,f,3.050000,M,1.670000,F*1
$GPGGA,123585,181.185000,N,06710.430000,W,2,10,0.6,791.6,M,-32.8,M,,*42
$SDDBT,11.000000,f,3.350000,M,1.830000,F*9
$GPGGA,123586,181.153000,N,06710.427000,W,2,10,0.6,791.6,M,-32.8,M,,*4C
$SDDBT,11.000000,f,3.350000,M,1.830000,F*9
$GPGGA,123587,181.112000,N,06710.427000,W,2,10,0.6,791.6,M,-32.8,M,,*48
$SDDBT,11.000000,f,3.350000,M,1.830000,F*9
$GPGGA,123588,181.077000,N,06710.435000,W,2,10,0.6,791.6,M,-32.8,M,,*46
$SDDBT,11.000000,f,3.350000,M,1.830000,F*9
$GPGGA,123589,181.043000,N,06710.435000,W,2,10,0.6,791.6,M,-32.8,M,,*40
$SDDBT,10.000000,f,3.050000,M,1.670000,F*1
$GPGGA,123590,181.011000,N,06710.443000,W,2,10,0.6,791.6,M,-32.8,M,,*4E
$SDDBT,10.000000,f,3.050000,M,1.670000,F*1
$GPGGA,123591,180.982000,N,06710.448000,W,2,10,0.6,791.6,M,-32.8,M,,*46
$SDDBT,10.000000,f,3.050000,M,1.670000,F*1
$GPGGA,123592,180.950000,N,06710.453000,W,2,10,0.6,791.6,M,-32.8,M,,*40
$SDDBT,11.000000,f,3.350000,M,1.830000,F*9
$GPGGA,123593,180.921000,N,06710.463000,W,2,10,0.6,791.6,M,-32.8,M,,*44
$SDDBT,10.000000,f,3.050000,M,1.670000,F*1
$GPGGA,123594,180.891000,N,06710.466000,W,2,10,0.6,791.6,M,-32.8,M,,*4C
$SDDBT,10.000000,f,3.050000,M,1.670000,F*1
$GPGGA,123595,180.864000,N,06710.468000,W,2,10,0.6,791.6,M,-32.8,M,,*49
$SDDBT,11.000000,f,3.350000,M,1.830000,F*9
$GPGGA,123596,180.840000,N,06710.479000,W,2,10,0.6,791.6,M,-32.8,M,,*4C
$SDDBT,10.000000,f,3.050000,M,1.670000,F*1
$GPGGA,123597,180.806000,N,06710.497000,W,2,10,0.6,791.6,M,-32.8,M,,*4F
$SDDBT,9.000000,f,2.740000,M,1.500000,F*3A
$GPGGA,123598,180.781000,N,06710.504000,W,2,10,0.6,791.6,M,-32.8,M,,*4B
$SDDBT,8.000000,f,2.440000,M,1.330000,F*3D
$GPGGA,123599,180.759000,N,06710.525000,W,2,10,0.6,791.6,M,-32.8,M,,*4C
$SDDBT,8.000000,f,2.440000,M,1.330000,F*3D
$GPGGA,123600,180.735000,N,06710.543000,W,2,10,0.6,791.6,M,-32.8,M,,*45
$SDDBT,9.000000,f,2.740000,M,1.500000,F*3A
$GPGGA,123601,180.703000,N,06710.569000,W,2,10,0.6,791.6,M,-32.8,M,,*49
$SDDBT,9.000000,f,2.740000,M,1.500000,F*3A
$GPGGA,123602,180.688000,N,06710.584000,W,2,10,0.6,791.6,M,-32.8,M,,*4B
$SDDBT,9.000000,f,2.740000,M,1.500000,F*3A
$GPGGA,123603,180.688000,N,06710.608000,W,2,10,0.6,791.6,M,-32.8,M,,*4D
$SDDBT,9.000000,f,2.740000,M,1.500000,F*3A
$GPGGA,123604,180.703000,N,06710.593000,W,2,10,0.6,791.6,M,-32.8,M,,*49
$SDDBT,9.000000,f,2.740000,M,1.500000,F*3A
$GPGGA,123605,180.735000,N,06710.567000,W,2,10,0.6,791.6,M,-32.8,M,,*46
$SDDBT,10.000000,f,3.050000,M,1.670000,F*1
$GPGGA,123606,180.759000,N,06710.549000,W,2,10,0.6,791.6,M,-32.8,M,,*43
$SDDBT,9.000000,f,2.740000,M,1.500000,F*3A
$GPGGA,123607,180.781000,N,06710.528000,W,2,10,0.6,791.6,M,-32.8,M,,*40
$SDDBT,8.000000,f,2.440000,M,1.330000,F*3D
$GPGGA,123608,180.806000,N,06710.521000,W,2,10,0.6,791.6,M,-32.8,M,,*46
$SDDBT,10.000000,f,3.050000,M,1.670000,F*1
$GPGGA,123609,180.840000,N,06710.503000,W,2,10,0.6,791.6,M,-32.8,M,,*45
$SDDBT,10.000000,f,3.050000,M,1.670000,F*1
$GPGGA,123610,180.864000,N,06710.492000,W,2,10,0.6,791.6,M,-32.8,M,,*42
$SDDBT,11.000000,f,3.350000,M,1.830000,F*9
$GPGGA,123611,180.891000,N,06710.490000,W,2,10,0.6,791.6,M,-32.8,M,,*4B
$SDDBT,10.000000,f,3.050000,M,1.670000,F*1
$GPGGA,123612,180.921000,N,06710.487000,W,2,10,0.6,791.6,M,-32.8,M,,*44
$SDDBT,10.000000,f,3.050000,M,1.670000,F*1
$GPGGA,123613,180.950000,N,06710.477000,W,2,10,0.6,791.6,M,-32.8,M,,*4C
$SDDBT,11.000000,f,3.350000,M,1.830000,F*9
$GPGGA,123614,180.982000,N,06710.472000,W,2,10,0.6,791.6,M,-32.8,M,,*41
$SDDBT,10.000000,f,3.050000,M,1.670000,F*1
$GPGGA,123615,181.011000,N,06710.467000,W,2,10,0.6,791.6,M,-32.8,M,,*46
$SDDBT,10.000000,f,3.050000,M,1.670000,F*1
$GPGGA,123616,181.043000,N,06710.459000,W,2,10,0.6,791.6,M,-32.8,M,,*4F
$SDDBT,10.000000,f,3.050000,M,1.670000,F*1
$GPGGA,123617,181.077000,N,06710.459000,W,2,10,0.6,791.6,M,-32.8,M,,*49
$SDDBT,11.000000,f,3.350000,M,1.830000,F*9
$GPGGA,123618,181.112000,N,06710.451000,W,2,10,0.6,791.6,M,-32.8,M,,*4C
$SDDBT,11.000000,f,3.350000,M,1.830000,F*9
$GPGGA,123619,181.153000,N,06710.451000,W,2,10,0.6,791.6,M,-32.8,M,,*48
$SDDBT,11.000000,f,3.350000,M,1.830000,F*9
$GPGGA,123620,181.185000,N,06710.454000,W,2,10,0.6,791.6,M,-32.8,M,,*4C
$SDDBT,11.000000,f,3.350000,M,1.830000,F*9
$GPGGA,123621,181.217000,N,06710.456000,W,2,10,0.6,791.6,M,-32.8,M,,*47
$SDDBT,11.000000,f,3.350000,M,1.830000,F*9
$GPGGA,123622,181.256000,N,06710.456000,W,2,10,0.6,791.6,M,-32.8,M,,*41
$SDDBT,10.000000,f,3.050000,M,1.670000,F*1
$GPGGA,123623,181.278000,N,06710.456000,W,2,10,0.6,791.6,M,-32.8,M,,*4C
$SDDBT,10.000000,f,3.050000,M,1.670000,F*1
$GPGGA,123624,181.315000,N,06710.461000,W,2,10,0.6,791.6,M,-32.8,M,,*45
$SDDBT,10.000000,f,3.050000,M,1.670000,F*1
$GPGGA,123625,181.344000,N,06710.467000,W,2,10,0.6,791.6,M,-32.8,M,,*46
$SDDBT,11.000000,f,3.350000,M,1.830000,F*9
$GPGGA,123626,181.369000,N,06710.469000,W,2,10,0.6,791.6,M,-32.8,M,,*44
$SDDBT,11.000000,f,3.350000,M,1.830000,F*9
$GPGGA,123627,181.393000,N,06710.479000,W,2,10,0.6,791.6,M,-32.8,M,,*41
$SDDBT,11.000000,f,3.350000,M,1.830000,F*9
$GPGGA,123628,181.418000,N,06710.495000,W,2,10,0.6,791.6,M,-32.8,M,,*48
$SDDBT,11.000000,f,3.350000,M,1.830000,F*9
$GPGGA,123629,181.440000,N,06710.505000,W,2,10,0.6,791.6,M,-32.8,M,,*4C
$SDDBT,8.000000,f,2.440000,M,1.330000,F*3D
$GPGGA,123630,181.459000,N,06710.515000,W,2,10,0.6,791.6,M,-32.8,M,,*4D
$SDDBT,3.000000,f,0.910000,M,0.500000,F*38
$GPGGA,123631,181.459000,N,06710.539000,W,2,10,0.6,791.6,M,-32.8,M,,*42
$SDDBT,8.000000,f,2.440000,M,1.330000,F*3D
$GPGGA,123632,181.440000,N,06710.529000,W,2,10,0.6,791.6,M,-32.8,M,,*48
$SDDBT,11.000000,f,3.350000,M,1.830000,F*9
$GPGGA,123633,181.418000,N,06710.519000,W,2,10,0.6,791.6,M,-32.8,M,,*47
$SDDBT,10.000000,f,3.050000,M,1.670000,F*1
$GPGGA,123634,181.393000,N,06710.503000,W,2,10,0.6,791.6,M,-32.8,M,,*4F
$SDDBT,10.000000,f,3.050000,M,1.670000,F*1
$GPGGA,123635,181.369000,N,06710.493000,W,2,10,0.6,791.6,M,-32.8,M,,*43
$SDDBT,11.000000,f,3.350000,M,1.830000,F*9
$GPGGA,123636,181.344000,N,06710.491000,W,2,10,0.6,791.6,M,-32.8,M,,*4D
$SDDBT,11.000000,f,3.350000,M,1.830000,F*9
$GPGGA,123637,181.315000,N,06710.485000,W,2,10,0.6,791.6,M,-32.8,M,,*4D
$SDDBT,11.000000,f,3.350000,M,1.830000,F*9
$GPGGA,123638,181.278000,N,06710.480000,W,2,10,0.6,791.6,M,-32.8,M,,*4D
$SDDBT,11.000000,f,3.350000,M,1.830000,F*9
$GPGGA,123639,181.256000,N,06710.480000,W,2,10,0.6,791.6,M,-32.8,M,,*40
$SDDBT,10.000000,f,3.050000,M,1.670000,F*1
$GPGGA,123640,181.217000,N,06710.480000,W,2,10,0.6,791.6,M,-32.8,M,,*4B
$SDDBT,11.000000,f,3.350000,M,1.830000,F*9
$GPGGA,123641,181.185000,N,06710.478000,W,2,10,0.6,791.6,M,-32.8,M,,*45
$SDDBT,13.000000,f,3.960000,M,2.170000,F*C
$GPGGA,123642,181.153000,N,06710.475000,W,2,10,0.6,791.6,M,-32.8,M,,*40
$SDDBT,12.000000,f,3.660000,M,2.000000,F*4
$GPGGA,123643,181.112000,N,06710.475000,W,2,10,0.6,791.6,M,-32.8,M,,*44
$SDDBT,12.000000,f,3.660000,M,2.000000,F*4
$GPGGA,123644,181.077000,N,06710.483000,W,2,10,0.6,791.6,M,-32.8,M,,*48
$SDDBT,11.000000,f,3.350000,M,1.830000,F*9
$GPGGA,123645,181.043000,N,06710.483000,W,2,10,0.6,791.6,M,-32.8,M,,*4E
$SDDBT,10.000000,f,3.050000,M,1.670000,F*1
$GPGGA,123646,181.011000,N,06710.491000,W,2,10,0.6,791.6,M,-32.8,M,,*49
$SDDBT,10.000000,f,3.050000,M,1.670000,F*1
$GPGGA,123647,180.982000,N,06710.496000,W,2,10,0.6,791.6,M,-32.8,M,,*4D
$SDDBT,10.000000,f,3.050000,M,1.670000,F*1
$GPGGA,123648,180.950000,N,06710.501000,W,2,10,0.6,791.6,M,-32.8,M,,*42
$SDDBT,11.000000,f,3.350000,M,1.830000,F*9
$GPGGA,123649,180.921000,N,06710.511000,W,2,10,0.6,791.6,M,-32.8,M,,*44
$SDDBT,10.000000,f,3.050000,M,1.670000,F*1
$GPGGA,123650,180.891000,N,06710.514000,W,2,10,0.6,791.6,M,-32.8,M,,*43
$SDDBT,11.000000,f,3.350000,M,1.830000,F*9
$GPGGA,123651,180.864000,N,06710.516000,W,2,10,0.6,791.6,M,-32.8,M,,*4A
$SDDBT,10.000000,f,3.050000,M,1.670000,F*1
$GPGGA,123652,180.840000,N,06710.527000,W,2,10,0.6,791.6,M,-32.8,M,,*4D
$SDDBT,11.000000,f,3.350000,M,1.830000,F*9
$GPGGA,123653,180.806000,N,06710.545000,W,2,10,0.6,791.6,M,-32.8,M,,*4A
$SDDBT,10.000000,f,3.050000,M,1.670000,F*1
$GPGGA,123654,180.781000,N,06710.552000,W,2,10,0.6,791.6,M,-32.8,M,,*4B
$SDDBT,9.000000,f,2.740000,M,1.500000,F*3A
$GPGGA,123655,180.759000,N,06710.573000,W,2,10,0.6,791.6,M,-32.8,M,,*4C
$SDDBT,10.000000,f,3.050000,M,1.670000,F*1
$GPGGA,123656,180.735000,N,06710.591000,W,2,10,0.6,791.6,M,-32.8,M,,*49
$SDDBT,10.000000,f,3.050000,M,1.670000,F*1
$GPGGA,123657,180.703000,N,06710.617000,W,2,10,0.6,791.6,M,-32.8,M,,*40
$SDDBT,9.000000,f,2.740000,M,1.500000,F*3A
$GPGGA,123658,180.688000,N,06710.632000,W,2,10,0.6,791.6,M,-32.8,M,,*4A
$SDDBT,10.000000,f,3.050000,M,1.670000,F*1
$GPGGA,123659,180.688000,N,06710.656000,W,2,10,0.6,791.6,M,-32.8,M,,*49
$SDDBT,10.000000,f,3.050000,M,1.670000,F*1
$GPGGA,123660,180.703000,N,06710.641000,W,2,10,0.6,791.6,M,-32.8,M,,*47
$SDDBT,10.000000,f,3.050000,M,1.670000,F*1
$GPGGA,123661,180.735000,N,06710.615000,W,2,10,0.6,791.6,M,-32.8,M,,*42
$SDDBT,10.000000,f,3.050000,M,1.670000,F*1
$GPGGA,123662,180.759000,N,06710.597000,W,2,10,0.6,791.6,M,-32.8,M,,*42
$SDDBT,10.000000,f,3.050000,M,1.670000,F*1
$GPGGA,123663,180.781000,N,06710.576000,W,2,10,0.6,791.6,M,-32.8,M,,*49
$SDDBT,11.000000,f,3.350000,M,1.830000,F*9
$GPGGA,123664,180.806000,N,06710.569000,W,2,10,0.6,791.6,M,-32.8,M,,*40
$SDDBT,10.000000,f,3.050000,M,1.670000,F*1
$GPGGA,123665,180.840000,N,06710.551000,W,2,10,0.6,791.6,M,-32.8,M,,*48
$SDDBT,12.000000,f,3.660000,M,2.000000,F*4
$GPGGA,123666,180.864000,N,06710.540000,W,2,10,0.6,791.6,M,-32.8,M,,*4D
$SDDBT,11.000000,f,3.350000,M,1.830000,F*9
$GPGGA,123667,180.891000,N,06710.538000,W,2,10,0.6,791.6,M,-32.8,M,,*49
$SDDBT,11.000000,f,3.350000,M,1.830000,F*9
$GPGGA,123668,180.921000,N,06710.535000,W,2,10,0.6,791.6,M,-32.8,M,,*41
$SDDBT,9.000000,f,2.740000,M,1.500000,F*3A
$GPGGA,123669,180.950000,N,06710.525000,W,2,10,0.6,791.6,M,-32.8,M,,*47
$SDDBT,9.000000,f,2.740000,M,1.500000,F*3A
$GPGGA,123670,180.982000,N,06710.520000,W,2,10,0.6,791.6,M,-32.8,M,,*45
$SDDBT,10.000000,f,3.050000,M,1.670000,F*1
$GPGGA,123671,181.011000,N,06710.515000,W,2,10,0.6,791.6,M,-32.8,M,,*40
$SDDBT,10.000000,f,3.050000,M,1.670000,F*1
$GPGGA,123672,181.043000,N,06710.507000,W,2,10,0.6,791.6,M,-32.8,M,,*47
$SDDBT,11.000000,f,3.350000,M,1.830000,F*9
$GPGGA,123673,181.077000,N,06710.507000,W,2,10,0.6,791.6,M,-32.8,M,,*41
$SDDBT,12.000000,f,3.660000,M,2.000000,F*4
$GPGGA,123674,181.112000,N,06710.499000,W,2,10,0.6,791.6,M,-32.8,M,,*42
$SDDBT,12.000000,f,3.660000,M,2.000000,F*4
$GPGGA,123675,181.153000,N,06710.499000,W,2,10,0.6,791.6,M,-32.8,M,,*46
$SDDBT,12.000000,f,3.660000,M,2.000000,F*4
$GPGGA,123676,181.185000,N,06710.502000,W,2,10,0.6,791.6,M,-32.8,M,,*4D
$SDDBT,13.000000,f,3.960000,M,2.170000,F*C
$GPGGA,123677,181.217000,N,06710.504000,W,2,10,0.6,791.6,M,-32.8,M,,*42
$SDDBT,12.000000,f,3.660000,M,2.000000,F*4
$GPGGA,123678,181.256000,N,06710.504000,W,2,10,0.6,791.6,M,-32.8,M,,*48
$SDDBT,11.000000,f,3.350000,M,1.830000,F*9
$GPGGA,123679,181.278000,N,06710.504000,W,2,10,0.6,791.6,M,-32.8,M,,*45
$SDDBT,11.000000,f,3.350000,M,1.830000,F*9
$GPGGA,123680,181.315000,N,06710.509000,W,2,10,0.6,791.6,M,-32.8,M,,*44
$SDDBT,13.000000,f,3.960000,M,2.170000,F*C
$GPGGA,123681,181.344000,N,06710.515000,W,2,10,0.6,791.6,M,-32.8,M,,*4C
$SDDBT,13.000000,f,3.960000,M,2.170000,F*C
$GPGGA,123682,181.369000,N,06710.517000,W,2,10,0.6,791.6,M,-32.8,M,,*42
$SDDBT,13.000000,f,3.960000,M,2.170000,F*C
$GPGGA,123683,181.393000,N,06710.527000,W,2,10,0.6,791.6,M,-32.8,M,,*45
$SDDBT,12.000000,f,3.660000,M,2.000000,F*4
$GPGGA,123684,181.418000,N,06710.543000,W,2,10,0.6,791.6,M,-32.8,M,,*44
$SDDBT,10.000000,f,3.050000,M,1.670000,F*1
$GPGGA,123685,181.440000,N,06710.553000,W,2,10,0.6,791.6,M,-32.8,M,,*49
$SDDBT,10.000000,f,3.050000,M,1.670000,F*1
$GPGGA,123686,181.459000,N,06710.563000,W,2,10,0.6,791.6,M,-32.8,M,,*41
$SDDBT,10.000000,f,3.050000,M,1.670000,F*1
$GPGGA,123687,181.459000,N,06710.587000,W,2,10,0.6,791.6,M,-32.8,M,,*4A
$SDDBT,11.000000,f,3.350000,M,1.830000,F*9
$GPGGA,123688,181.440000,N,06710.577000,W,2,10,0.6,791.6,M,-32.8,M,,*42
$SDDBT,9.000000,f,2.740000,M,1.500000,F*3A
$GPGGA,123689,181.418000,N,06710.567000,W,2,10,0.6,791.6,M,-32.8,M,,*4F
$SDDBT,6.000000,f,1.830000,M,1.000000,F*3B
$GPGGA,123690,181.393000,N,06710.551000,W,2,10,0.6,791.6,M,-32.8,M,,*46
$SDDBT,14.000000,f,4.270000,M,2.330000,F*
$GPGGA,123691,181.369000,N,06710.541000,W,2,10,0.6,791.6,M,-32.8,M,,*43
$SDDBT,14.000000,f,4.270000,M,2.330000,F*
$GPGGA,123692,181.344000,N,06710.539000,W,2,10,0.6,791.6,M,-32.8,M,,*40
$SDDBT,14.000000,f,4.270000,M,2.330000,F*
$GPGGA,123693,181.315000,N,06710.533000,W,2,10,0.6,791.6,M,-32.8,M,,*4F
$SDDBT,14.000000,f,4.270000,M,2.330000,F*
$GPGGA,123694,181.278000,N,06710.528000,W,2,10,0.6,791.6,M,-32.8,M,,*48
$SDDBT,13.000000,f,3.960000,M,2.170000,F*C
$GPGGA,123695,181.256000,N,06710.528000,W,2,10,0.6,791.6,M,-32.8,M,,*45
$SDDBT,13.000000,f,3.960000,M,2.170000,F*C
$GPGGA,123696,181.217000,N,06710.528000,W,2,10,0.6,791.6,M,-32.8,M,,*43
$SDDBT,13.000000,f,3.960000,M,2.170000,F*C
$GPGGA,123697,181.185000,N,06710.526000,W,2,10,0.6,791.6,M,-32.8,M,,*44
$SDDBT,12.000000,f,3.660000,M,2.000000,F*4
$GPGGA,123698,181.153000,N,06710.523000,W,2,10,0.6,791.6,M,-32.8,M,,*45
$SDDBT,12.000000,f,3.660000,M,2.000000,F*4
$GPGGA,123699,181.112000,N,06710.523000,W,2,10,0.6,791.6,M,-32.8,M,,*41
$SDDBT,12.000000,f,3.660000,M,2.000000,F*4
$GPGGA,123700,181.077000,N,06710.531000,W,2,10,0.6,791.6,M,-32.8,M,,*41
$SDDBT,13.000000,f,3.960000,M,2.170000,F*C
$GPGGA,123701,181.043000,N,06710.531000,W,2,10,0.6,791.6,M,-32.8,M,,*47
$SDDBT,12.000000,f,3.660000,M,2.000000,F*4
$GPGGA,123702,181.011000,N,06710.539000,W,2,10,0.6,791.6,M,-32.8,M,,*4B
$SDDBT,12.000000,f,3.660000,M,2.000000,F*4
$GPGGA,123703,180.982000,N,06710.544000,W,2,10,0.6,791.6,M,-32.8,M,,*42
$SDDBT,12.000000,f,3.660000,M,2.000000,F*4
$GPGGA,123704,180.950000,N,06710.549000,W,2,10,0.6,791.6,M,-32.8,M,,*47
$SDDBT,10.000000,f,3.050000,M,1.670000,F*1
$GPGGA,123705,180.921000,N,06710.559000,W,2,10,0.6,791.6,M,-32.8,M,,*41
$SDDBT,9.000000,f,2.740000,M,1.500000,F*3A
$GPGGA,123706,180.891000,N,06710.562000,W,2,10,0.6,791.6,M,-32.8,M,,*40
$SDDBT,11.000000,f,3.350000,M,1.830000,F*9
$GPGGA,123707,180.864000,N,06710.564000,W,2,10,0.6,791.6,M,-32.8,M,,*4D
$SDDBT,12.000000,f,3.660000,M,2.000000,F*4
$GPGGA,123708,180.840000,N,06710.575000,W,2,10,0.6,791.6,M,-32.8,M,,*44
$SDDBT,12.000000,f,3.660000,M,2.000000,F*4
$GPGGA,123709,180.806000,N,06710.593000,W,2,10,0.6,791.6,M,-32.8,M,,*4F
$SDDBT,10.000000,f,3.050000,M,1.670000,F*1
$GPGGA,123710,180.781000,N,06710.600000,W,2,10,0.6,791.6,M,-32.8,M,,*4E
$SDDBT,10.000000,f,3.050000,M,1.670000,F*1
$GPGGA,123711,180.759000,N,06710.621000,W,2,10,0.6,791.6,M,-32.8,M,,*49
$SDDBT,11.000000,f,3.350000,M,1.830000,F*9
$GPGGA,123712,180.735000,N,06710.639000,W,2,10,0.6,791.6,M,-32.8,M,,*49
$SDDBT,11.000000,f,3.350000,M,1.830000,F*9
$GPGGA,123713,180.703000,N,06710.665000,W,2,10,0.6,791.6,M,-32.8,M,,*44
$SDDBT,11.000000,f,3.350000,M,1.830000,F*9
$GPGGA,123714,180.688000,N,06710.680000,W,2,10,0.6,791.6,M,-32.8,M,,*4A
$SDDBT,13.000000,f,3.960000,M,2.170000,F*C
$GPGGA,123715,180.688000,N,06710.704000,W,2,10,0.6,791.6,M,-32.8,M,,*46
$SDDBT,13.000000,f,3.960000,M,2.170000,F*C
$GPGGA,123716,180.703000,N,06710.689000,W,2,10,0.6,791.6,M,-32.8,M,,*43
$SDDBT,15.000000,f,4.570000,M,2.500000,F*3
$GPGGA,123717,180.735000,N,06710.663000,W,2,10,0.6,791.6,M,-32.8,M,,*43
$SDDBT,12.000000,f,3.660000,M,2.000000,F*4
$GPGGA,123718,180.759000,N,06710.645000,W,2,10,0.6,791.6,M,-32.8,M,,*42
$SDDBT,11.000000,f,3.350000,M,1.830000,F*9
$GPGGA,123719,180.781000,N,06710.624000,W,2,10,0.6,791.6,M,-32.8,M,,*41
$SDDBT,11.000000,f,3.350000,M,1.830000,F*9
$GPGGA,123720,180.806000,N,06710.617000,W,2,10,0.6,791.6,M,-32.8,M,,*4B
$SDDBT,12.000000,f,3.660000,M,2.000000,F*4
$GPGGA,123721,180.840000,N,06710.599000,W,2,10,0.6,791.6,M,-32.8,M,,*4D
$SDDBT,12.000000,f,3.660000,M,2.000000,F*4
$GPGGA,123722,180.864000,N,06710.588000,W,2,10,0.6,791.6,M,-32.8,M,,*48
$SDDBT,12.000000,f,3.660000,M,2.000000,F*4
$GPGGA,123723,180.891000,N,06710.586000,W,2,10,0.6,791.6,M,-32.8,M,,*4D
$SDDBT,12.000000,f,3.660000,M,2.000000,F*4
$GPGGA,123724,180.921000,N,06710.583000,W,2,10,0.6,791.6,M,-32.8,M,,*45
$SDDBT,12.000000,f,3.660000,M,2.000000,F*4
$GPGGA,123725,180.950000,N,06710.573000,W,2,10,0.6,791.6,M,-32.8,M,,*4D
$SDDBT,13.000000,f,3.960000,M,2.170000,F*C
$GPGGA,123726,180.982000,N,06710.568000,W,2,10,0.6,791.6,M,-32.8,M,,*4B
$SDDBT,13.000000,f,3.960000,M,2.170000,F*C
$GPGGA,123727,181.011000,N,06710.563000,W,2,10,0.6,791.6,M,-32.8,M,,*43
$SDDBT,12.000000,f,3.660000,M,2.000000,F*4
$GPGGA,123728,181.043000,N,06710.555000,W,2,10,0.6,791.6,M,-32.8,M,,*4E
$SDDBT,13.000000,f,3.960000,M,2.170000,F*C
$GPGGA,123729,181.077000,N,06710.555000,W,2,10,0.6,791.6,M,-32.8,M,,*48
$SDDBT,13.000000,f,3.960000,M,2.170000,F*C
$GPGGA,123730,181.112000,N,06710.547000,W,2,10,0.6,791.6,M,-32.8,M,,*41
$SDDBT,13.000000,f,3.960000,M,2.170000,F*C
$GPGGA,123731,181.153000,N,06710.547000,W,2,10,0.6,791.6,M,-32.8,M,,*45
$SDDBT,12.000000,f,3.660000,M,2.000000,F*4
$GPGGA,123732,181.185000,N,06710.550000,W,2,10,0.6,791.6,M,-32.8,M,,*4B
$SDDBT,13.000000,f,3.960000,M,2.170000,F*C
$GPGGA,123733,181.217000,N,06710.552000,W,2,10,0.6,791.6,M,-32.8,M,,*40
$SDDBT,13.000000,f,3.960000,M,2.170000,F*C
$GPGGA,123734,181.256000,N,06710.552000,W,2,10,0.6,791.6,M,-32.8,M,,*42
$SDDBT,13.000000,f,3.960000,M,2.170000,F*C
$GPGGA,123735,181.278000,N,06710.552000,W,2,10,0.6,791.6,M,-32.8,M,,*4F
$SDDBT,13.000000,f,3.960000,M,2.170000,F*C
$GPGGA,123736,181.315000,N,06710.557000,W,2,10,0.6,791.6,M,-32.8,M,,*43
$SDDBT,14.000000,f,4.270000,M,2.330000,F*
$GPGGA,123737,181.344000,N,06710.563000,W,2,10,0.6,791.6,M,-32.8,M,,*41
$SDDBT,14.000000,f,4.270000,M,2.330000,F*
$GPGGA,123738,181.369000,N,06710.565000,W,2,10,0.6,791.6,M,-32.8,M,,*47
$SDDBT,14.000000,f,4.270000,M,2.330000,F*
$GPGGA,123739,181.393000,N,06710.575000,W,2,10,0.6,791.6,M,-32.8,M,,*42
$SDDBT,13.000000,f,3.960000,M,2.170000,F*C
$GPGGA,123740,181.418000,N,06710.591000,W,2,10,0.6,791.6,M,-32.8,M,,*42
$SDDBT,10.000000,f,3.050000,M,1.670000,F*1
$GPGGA,123741,181.440000,N,06710.601000,W,2,10,0.6,791.6,M,-32.8,M,,*44
$SDDBT,14.000000,f,4.270000,M,2.330000,F*
$GPGGA,123742,181.459000,N,06710.611000,W,2,10,0.6,791.6,M,-32.8,M,,*4E
$SDDBT,13.000000,f,3.960000,M,2.170000,F*C
$GPGGA,123743,181.459000,N,06710.635000,W,2,10,0.6,791.6,M,-32.8,M,,*49
$SDDBT,13.000000,f,3.960000,M,2.170000,F*C
$GPGGA,123744,181.440000,N,06710.625000,W,2,10,0.6,791.6,M,-32.8,M,,*47
$SDDBT,13.000000,f,3.960000,M,2.170000,F*C
$GPGGA,123745,181.418000,N,06710.615000,W,2,10,0.6,791.6,M,-32.8,M,,*48
$SDDBT,14.000000,f,4.270000,M,2.330000,F*
$GPGGA,123746,181.393000,N,06710.599000,W,2,10,0.6,791.6,M,-32.8,M,,*48
$SDDBT,15.000000,f,4.570000,M,2.500000,F*3
$GPGGA,123747,181.369000,N,06710.589000,W,2,10,0.6,791.6,M,-32.8,M,,*4D
$SDDBT,14.000000,f,4.270000,M,2.330000,F*
$GPGGA,123748,181.344000,N,06710.587000,W,2,10,0.6,791.6,M,-32.8,M,,*43
$SDDBT,14.000000,f,4.270000,M,2.330000,F*
$GPGGA,123749,181.315000,N,06710.581000,W,2,10,0.6,791.6,M,-32.8,M,,*40
$SDDBT,14.000000,f,4.270000,M,2.330000,F*
$GPGGA,123750,181.278000,N,06710.576000,W,2,10,0.6,791.6,M,-32.8,M,,*4A
$SDDBT,14.000000,f,4.270000,M,2.330000,F*
$GPGGA,123751,181.256000,N,06710.576000,W,2,10,0.6,791.6,M,-32.8,M,,*47
$SDDBT,13.000000,f,3.960000,M,2.170000,F*C
$GPGGA,123752,181.217000,N,06710.576000,W,2,10,0.6,791.6,M,-32.8,M,,*41
$SDDBT,13.000000,f,3.960000,M,2.170000,F*C
$GPGGA,123753,181.185000,N,06710.574000,W,2,10,0.6,791.6,M,-32.8,M,,*4A
$SDDBT,13.000000,f,3.960000,M,2.170000,F*C
$GPGGA,123754,181.153000,N,06710.571000,W,2,10,0.6,791.6,M,-32.8,M,,*43
$SDDBT,13.000000,f,3.960000,M,2.170000,F*C
$GPGGA,123755,181.112000,N,06710.571000,W,2,10,0.6,791.6,M,-32.8,M,,*47
$SDDBT,13.000000,f,3.960000,M,2.170000,F*C
$GPGGA,123756,181.077000,N,06710.579000,W,2,10,0.6,791.6,M,-32.8,M,,*4E
$SDDBT,13.000000,f,3.960000,M,2.170000,F*C
$GPGGA,123757,181.043000,N,06710.579000,W,2,10,0.6,791.6,M,-32.8,M,,*48
$SDDBT,13.000000,f,3.960000,M,2.170000,F*C
$GPGGA,123758,181.011000,N,06710.587000,W,2,10,0.6,791.6,M,-32.8,M,,*41
$SDDBT,13.000000,f,3.960000,M,2.170000,F*C
$GPGGA,123759,180.982000,N,06710.592000,W,2,10,0.6,791.6,M,-32.8,M,,*46
$SDDBT,13.000000,f,3.960000,M,2.170000,F*C
$GPGGA,123760,180.950000,N,06710.597000,W,2,10,0.6,791.6,M,-32.8,M,,*46
$SDDBT,12.000000,f,3.660000,M,2.000000,F*4
$GPGGA,123761,180.921000,N,06710.607000,W,2,10,0.6,791.6,M,-32.8,M,,*4B
$SDDBT,12.000000,f,3.660000,M,2.000000,F*4
$GPGGA,123762,180.891000,N,06710.610000,W,2,10,0.6,791.6,M,-32.8,M,,*44
$SDDBT,12.000000,f,3.660000,M,2.000000,F*4
$GPGGA,123763,180.864000,N,06710.612000,W,2,10,0.6,791.6,M,-32.8,M,,*4D
$SDDBT,12.000000,f,3.660000,M,2.000000,F*4
$GPGGA,123764,180.840000,N,06710.623000,W,2,10,0.6,791.6,M,-32.8,M,,*4E
$SDDBT,12.000000,f,3.660000,M,2.000000,F*4
$GPGGA,123765,180.806000,N,06710.641000,W,2,10,0.6,791.6,M,-32.8,M,,*49
$SDDBT,13.000000,f,3.960000,M,2.170000,F*C
$GPGGA,123766,180.781000,N,06710.648000,W,2,10,0.6,791.6,M,-32.8,M,,*43
$SDDBT,12.000000,f,3.660000,M,2.000000,F*4
$GPGGA,123767,180.759000,N,06710.669000,W,2,10,0.6,791.6,M,-32.8,M,,*44
$SDDBT,13.000000,f,3.960000,M,2.170000,F*C
$GPGGA,123768,180.735000,N,06710.687000,W,2,10,0.6,791.6,M,-32.8,M,,*41
$SDDBT,14.000000,f,4.270000,M,2.330000,F*
$GPGGA,123769,180.703000,N,06710.713000,W,2,10,0.6,791.6,M,-32.8,M,,*49
$SDDBT,13.000000,f,3.960000,M,2.170000,F*C
$GPGGA,123770,180.688000,N,06710.728000,W,2,10,0.6,791.6,M,-32.8,M,,*4B
$SDDBT,13.000000,f,3.960000,M,2.170000,F*C
$GPGGA,123771,180.688000,N,06710.752000,W,2,10,0.6,791.6,M,-32.8,M,,*47
$SDDBT,12.000000,f,3.660000,M,2.000000,F*4
$GPGGA,123772,180.703000,N,06710.737000,W,2,10,0.6,791.6,M,-32.8,M,,*45
$SDDBT,13.000000,f,3.960000,M,2.170000,F*C
$GPGGA,123773,180.735000,N,06710.711000,W,2,10,0.6,791.6,M,-32.8,M,,*45
$SDDBT,14.000000,f,4.270000,M,2.330000,F*
$GPGGA,123774,180.759000,N,06710.693000,W,2,10,0.6,791.6,M,-32.8,M,,*43
$SDDBT,13.000000,f,3.960000,M,2.170000,F*C
$GPGGA,123775,180.781000,N,06710.672000,W,2,10,0.6,791.6,M,-32.8,M,,*48
$SDDBT,14.000000,f,4.270000,M,2.330000,F*
$GPGGA,123776,180.806000,N,06710.665000,W,2,10,0.6,791.6,M,-32.8,M,,*4D
$SDDBT,14.000000,f,4.270000,M,2.330000,F*
$GPGGA,123777,180.840000,N,06710.647000,W,2,10,0.6,791.6,M,-32.8,M,,*4E
$SDDBT,13.000000,f,3.960000,M,2.170000,F*C
$GPGGA,123778,180.864000,N,06710.636000,W,2,10,0.6,791.6,M,-32.8,M,,*41
$SDDBT,13.000000,f,3.960000,M,2.170000,F*C
$GPGGA,123779,180.891000,N,06710.634000,W,2,10,0.6,791.6,M,-32.8,M,,*48
$SDDBT,12.000000,f,3.660000,M,2.000000,F*4
$GPGGA,123780,180.921000,N,06710.631000,W,2,10,0.6,791.6,M,-32.8,M,,*41
$SDDBT,13.000000,f,3.960000,M,2.170000,F*C
$GPGGA,123781,180.950000,N,06710.621000,W,2,10,0.6,791.6,M,-32.8,M,,*47
$SDDBT,13.000000,f,3.960000,M,2.170000,F*C
$GPGGA,123782,180.982000,N,06710.616000,W,2,10,0.6,791.6,M,-32.8,M,,*4F
$SDDBT,13.000000,f,3.960000,M,2.170000,F*C
$GPGGA,123783,181.011000,N,06710.611000,W,2,10,0.6,791.6,M,-32.8,M,,*4B
$SDDBT,13.000000,f,3.960000,M,2.170000,F*C
$GPGGA,123784,181.043000,N,06710.603000,W,2,10,0.6,791.6,M,-32.8,M,,*48
$SDDBT,13.000000,f,3.960000,M,2.170000,F*C
$GPGGA,123785,181.077000,N,06710.603000,W,2,10,0.6,791.6,M,-32.8,M,,*4E
$SDDBT,13.000000,f,3.960000,M,2.170000,F*C
$GPGGA,123786,181.112000,N,06710.595000,W,2,10,0.6,791.6,M,-32.8,M,,*43
$SDDBT,13.000000,f,3.960000,M,2.170000,F*C
$GPGGA,123787,181.153000,N,06710.595000,W,2,10,0.6,791.6,M,-32.8,M,,*47
$SDDBT,13.000000,f,3.960000,M,2.170000,F*C
$GPGGA,123788,181.185000,N,06710.598000,W,2,10,0.6,791.6,M,-32.8,M,,*4E
$SDDBT,13.000000,f,3.960000,M,2.170000,F*C
$GPGGA,123789,181.217000,N,06710.600000,W,2,10,0.6,791.6,M,-32.8,M,,*45
$SDDBT,13.000000,f,3.960000,M,2.170000,F*C
$GPGGA,123790,181.256000,N,06710.600000,W,2,10,0.6,791.6,M,-32.8,M,,*48
$SDDBT,13.000000,f,3.960000,M,2.170000,F*C
$GPGGA,123791,181.278000,N,06710.600000,W,2,10,0.6,791.6,M,-32.8,M,,*45
$SDDBT,14.000000,f,4.270000,M,2.330000,F*
$GPGGA,123792,181.315000,N,06710.605000,W,2,10,0.6,791.6,M,-32.8,M,,*49
$SDDBT,13.000000,f,3.960000,M,2.170000,F*C
$GPGGA,123793,181.344000,N,06710.611000,W,2,10,0.6,791.6,M,-32.8,M,,*49
$SDDBT,14.000000,f,4.270000,M,2.330000,F*
$GPGGA,123794,181.369000,N,06710.613000,W,2,10,0.6,791.6,M,-32.8,M,,*43
$SDDBT,14.000000,f,4.270000,M,2.330000,F*
$GPGGA,123795,181.393000,N,06710.623000,W,2,10,0.6,791.6,M,-32.8,M,,*44
$SDDBT,14.000000,f,4.270000,M,2.330000,F*
$GPGGA,123796,181.418000,N,06710.639000,W,2,10,0.6,791.6,M,-32.8,M,,*48
$SDDBT,14.000000,f,4.270000,M,2.330000,F*
$GPGGA,123797,181.440000,N,06710.649000,W,2,10,0.6,791.6,M,-32.8,M,,*43
$SDDBT,14.000000,f,4.270000,M,2.330000,F*
$GPGGA,123798,181.459000,N,06710.659000,W,2,10,0.6,791.6,M,-32.8,M,,*45
$SDDBT,13.000000,f,3.960000,M,2.170000,F*C
$GPGGA,123799,181.459000,N,06710.683000,W,2,10,0.6,791.6,M,-32.8,M,,*43
$SDDBT,13.000000,f,3.960000,M,2.170000,F*C
$GPGGA,123800,181.440000,N,06710.673000,W,2,10,0.6,791.6,M,-32.8,M,,*4B
$SDDBT,14.000000,f,4.270000,M,2.330000,F*
$GPGGA,123801,181.418000,N,06710.663000,W,2,10,0.6,791.6,M,-32.8,M,,*46
$SDDBT,14.000000,f,4.270000,M,2.330000,F*
$GPGGA,123802,181.393000,N,06710.647000,W,2,10,0.6,791.6,M,-32.8,M,,*47
$SDDBT,14.000000,f,4.270000,M,2.330000,F*
$GPGGA,123803,181.369000,N,06710.637000,W,2,10,0.6,791.6,M,-32.8,M,,*44
$SDDBT,15.000000,f,4.570000,M,2.500000,F*3
$GPGGA,123804,181.344000,N,06710.635000,W,2,10,0.6,791.6,M,-32.8,M,,*4E
$SDDBT,13.000000,f,3.960000,M,2.170000,F*C
$GPGGA,123805,181.315000,N,06710.629000,W,2,10,0.6,791.6,M,-32.8,M,,*46
$SDDBT,14.000000,f,4.270000,M,2.330000,F*
$GPGGA,123806,181.278000,N,06710.624000,W,2,10,0.6,791.6,M,-32.8,M,,*42
$SDDBT,14.000000,f,4.270000,M,2.330000,F*
$GPGGA,123807,181.256000,N,06710.624000,W,2,10,0.6,791.6,M,-32.8,M,,*4F
$SDDBT,14.000000,f,4.270000,M,2.330000,F*
$GPGGA,123808,181.217000,N,06710.624000,W,2,10,0.6,791.6,M,-32.8,M,,*45
$SDDBT,13.000000,f,3.960000,M,2.170000,F*C
$GPGGA,123809,181.185000,N,06710.622000,W,2,10,0.6,791.6,M,-32.8,M,,*4A
$SDDBT,13.000000,f,3.960000,M,2.170000,F*C
$GPGGA,123810,181.153000,N,06710.619000,W,2,10,0.6,791.6,M,-32.8,M,,*41
$SDDBT,13.000000,f,3.960000,M,2.170000,F*C
$GPGGA,123811,181.112000,N,06710.619000,W,2,10,0.6,791.6,M,-32.8,M,,*45
$SDDBT,13.000000,f,3.960000,M,2.170000,F*C
$GPGGA,123812,181.077000,N,06710.627000,W,2,10,0.6,791.6,M,-32.8,M,,*49
$SDDBT,13.000000,f,3.960000,M,2.170000,F*C
$GPGGA,123813,181.043000,N,06710.627000,W,2,10,0.6,791.6,M,-32.8,M,,*4F
$SDDBT,14.000000,f,4.270000,M,2.330000,F*
$GPGGA,123814,181.011000,N,06710.635000,W,2,10,0.6,791.6,M,-32.8,M,,*4C
$SDDBT,14.000000,f,4.270000,M,2.330000,F*
$GPGGA,123815,180.982000,N,06710.640000,W,2,10,0.6,791.6,M,-32.8,M,,*4D
$SDDBT,14.000000,f,4.270000,M,2.330000,F*
$GPGGA,123816,180.950000,N,06710.645000,W,2,10,0.6,791.6,M,-32.8,M,,*44
$SDDBT,14.000000,f,4.270000,M,2.330000,F*
$GPGGA,123817,180.921000,N,06710.655000,W,2,10,0.6,791.6,M,-32.8,M,,*42
$SDDBT,14.000000,f,4.270000,M,2.330000,F*
$GPGGA,123818,180.891000,N,06710.658000,W,2,10,0.6,791.6,M,-32.8,M,,*4A
$SDDBT,13.000000,f,3.960000,M,2.170000,F*C
$GPGGA,123819,180.864000,N,06710.660000,W,2,10,0.6,791.6,M,-32.8,M,,*4A
$SDDBT,13.000000,f,3.960000,M,2.170000,F*C
$GPGGA,123820,180.840000,N,06710.671000,W,2,10,0.6,791.6,M,-32.8,M,,*46
$SDDBT,13.000000,f,3.960000,M,2.170000,F*C
$GPGGA,123821,180.806000,N,06710.689000,W,2,10,0.6,791.6,M,-32.8,M,,*42
$SDDBT,14.000000,f,4.270000,M,2.330000,F*
$GPGGA,123822,180.781000,N,06710.696000,W,2,10,0.6,791.6,M,-32.8,M,,*4F
$SDDBT,14.000000,f,4.270000,M,2.330000,F*
$GPGGA,123823,180.759000,N,06710.717000,W,2,10,0.6,791.6,M,-32.8,M,,*43
$SDDBT,14.000000,f,4.270000,M,2.330000,F*
$GPGGA,123824,180.735000,N,06710.735000,W,2,10,0.6,791.6,M,-32.8,M,,*4E
$SDDBT,14.000000,f,4.270000,M,2.330000,F*
$GPGGA,123825,180.703000,N,06710.761000,W,2,10,0.6,791.6,M,-32.8,M,,*4B
$SDDBT,13.000000,f,3.960000,M,2.170000,F*C
$GPGGA,123826,180.688000,N,06710.776000,W,2,10,0.6,791.6,M,-32.8,M,,*4C
$SDDBT,14.000000,f,4.270000,M,2.330000,F*
$GPGGA,123827,180.688000,N,06710.800000,W,2,10,0.6,791.6,M,-32.8,M,,*43
$SDDBT,15.000000,f,4.570000,M,2.500000,F*3
$GPGGA,123828,180.703000,N,06710.785000,W,2,10,0.6,791.6,M,-32.8,M,,*4C
$SDDBT,15.000000,f,4.570000,M,2.500000,F*3
$GPGGA,123829,180.735000,N,06710.759000,W,2,10,0.6,791.6,M,-32.8,M,,*49
$SDDBT,15.000000,f,4.570000,M,2.500000,F*3
$GPGGA,123830,180.759000,N,06710.741000,W,2,10,0.6,791.6,M,-32.8,M,,*42
$SDDBT,14.000000,f,4.270000,M,2.330000,F*
$GPGGA,123831,180.781000,N,06710.720000,W,2,10,0.6,791.6,M,-32.8,M,,*41
$SDDBT,14.000000,f,4.270000,M,2.330000,F*
$GPGGA,123832,180.806000,N,06710.713000,W,2,10,0.6,791.6,M,-32.8,M,,*42
$SDDBT,14.000000,f,4.270000,M,2.330000,F*
$GPGGA,123833,180.840000,N,06710.695000,W,2,10,0.6,791.6,M,-32.8,M,,*4E
$SDDBT,14.000000,f,4.270000,M,2.330000,F*
$GPGGA,123834,180.864000,N,06710.684000,W,2,10,0.6,791.6,M,-32.8,M,,*4F
$SDDBT,13.000000,f,3.960000,M,2.170000,F*C
$GPGGA,123835,180.891000,N,06710.682000,W,2,10,0.6,791.6,M,-32.8,M,,*42
$SDDBT,13.000000,f,3.960000,M,2.170000,F*C
$GPGGA,123836,180.921000,N,06710.679000,W,2,10,0.6,791.6,M,-32.8,M,,*4F
$SDDBT,14.000000,f,4.270000,M,2.330000,F*
$GPGGA,123837,180.950000,N,06710.669000,W,2,10,0.6,791.6,M,-32.8,M,,*49
$SDDBT,14.000000,f,4.270000,M,2.330000,F*
$GPGGA,123838,180.982000,N,06710.664000,W,2,10,0.6,791.6,M,-32.8,M,,*44
$SDDBT,14.000000,f,4.270000,M,2.330000,F*
$GPGGA,123839,181.011000,N,06710.659000,W,2,10,0.6,791.6,M,-32.8,M,,*49
$SDDBT,14.000000,f,4.270000,M,2.330000,F*
$GPGGA,123840,181.043000,N,06710.651000,W,2,10,0.6,791.6,M,-32.8,M,,*48
$SDDBT,14.000000,f,4.270000,M,2.330000,F*
$GPGGA,123841,181.077000,N,06710.651000,W,2,10,0.6,791.6,M,-32.8,M,,*4E
$SDDBT,14.000000,f,4.270000,M,2.330000,F*
$GPGGA,123842,181.112000,N,06710.643000,W,2,10,0.6,791.6,M,-32.8,M,,*4C
$SDDBT,13.000000,f,3.960000,M,2.170000,F*C
$GPGGA,123843,181.153000,N,06710.643000,W,2,10,0.6,791.6,M,-32.8,M,,*48
$SDDBT,13.000000,f,3.960000,M,2.170000,F*C
$GPGGA,123844,181.185000,N,06710.646000,W,2,10,0.6,791.6,M,-32.8,M,,*41
$SDDBT,14.000000,f,4.270000,M,2.330000,F*
$GPGGA,123845,181.217000,N,06710.648000,W,2,10,0.6,791.6,M,-32.8,M,,*46
$SDDBT,14.000000,f,4.270000,M,2.330000,F*
$GPGGA,123846,181.256000,N,06710.648000,W,2,10,0.6,791.6,M,-32.8,M,,*40
$SDDBT,14.000000,f,4.270000,M,2.330000,F*
$GPGGA,123847,181.278000,N,06710.648000,W,2,10,0.6,791.6,M,-32.8,M,,*4D
$SDDBT,14.000000,f,4.270000,M,2.330000,F*
$GPGGA,123848,181.315000,N,06710.653000,W,2,10,0.6,791.6,M,-32.8,M,,*42
$SDDBT,14.000000,f,4.270000,M,2.330000,F*
$GPGGA,123849,181.344000,N,06710.659000,W,2,10,0.6,791.6,M,-32.8,M,,*4D
$SDDBT,14.000000,f,4.270000,M,2.330000,F*
$GPGGA,123850,181.369000,N,06710.661000,W,2,10,0.6,791.6,M,-32.8,M,,*41
$SDDBT,14.000000,f,4.270000,M,2.330000,F*
$GPGGA,123851,181.393000,N,06710.671000,W,2,10,0.6,791.6,M,-32.8,M,,*44
$SDDBT,14.000000,f,4.270000,M,2.330000,F*
$GPGGA,123852,181.418000,N,06710.687000,W,2,10,0.6,791.6,M,-32.8,M,,*4A
$SDDBT,14.000000,f,4.270000,M,2.330000,F*
$GPGGA,123853,181.440000,N,06710.697000,W,2,10,0.6,791.6,M,-32.8,M,,*47
$SDDBT,14.000000,f,4.270000,M,2.330000,F*
$GPGGA,123854,181.459000,N,06710.707000,W,2,10,0.6,791.6,M,-32.8,M,,*40
$SDDBT,14.000000,f,4.270000,M,2.330000,F*
$GPGGA,123855,181.459000,N,06710.731000,W,2,10,0.6,791.6,M,-32.8,M,,*44
$SDDBT,14.000000,f,4.270000,M,2.330000,F*
$GPGGA,123856,181.440000,N,06710.721000,W,2,10,0.6,791.6,M,-32.8,M,,*4E
$SDDBT,15.000000,f,4.570000,M,2.500000,F*3
$GPGGA,123857,181.418000,N,06710.711000,W,2,10,0.6,791.6,M,-32.8,M,,*41
$SDDBT,14.000000,f,4.270000,M,2.330000,F*
$GPGGA,123858,181.393000,N,06710.695000,W,2,10,0.6,791.6,M,-32.8,M,,*47
$SDDBT,14.000000,f,4.270000,M,2.330000,F*
$GPGGA,123859,181.369000,N,06710.685000,W,2,10,0.6,791.6,M,-32.8,M,,*42
$SDDBT,14.000000,f,4.270000,M,2.330000,F*
$GPGGA,123860,181.344000,N,06710.683000,W,2,10,0.6,791.6,M,-32.8,M,,*41
$SDDBT,14.000000,f,4.270000,M,2.330000,F*
$GPGGA,123861,181.315000,N,06710.677000,W,2,10,0.6,791.6,M,-32.8,M,,*4F
$SDDBT,14.000000,f,4.270000,M,2.330000,F*
$GPGGA,123862,181.278000,N,06710.672000,W,2,10,0.6,791.6,M,-32.8,M,,*43
$SDDBT,14.000000,f,4.270000,M,2.330000,F*
$GPGGA,123863,181.256000,N,06710.672000,W,2,10,0.6,791.6,M,-32.8,M,,*4E
$SDDBT,14.000000,f,4.270000,M,2.330000,F*
$GPGGA,123864,181.217000,N,06710.672000,W,2,10,0.6,791.6,M,-32.8,M,,*4C
$SDDBT,14.000000,f,4.270000,M,2.330000,F*
$GPGGA,123865,181.185000,N,06710.670000,W,2,10,0.6,791.6,M,-32.8,M,,*47
$SDDBT,14.000000,f,4.270000,M,2.330000,F*
$GPGGA,123866,181.153000,N,06710.667000,W,2,10,0.6,791.6,M,-32.8,M,,*49
$SDDBT,14.000000,f,4.270000,M,2.330000,F*
$GPGGA,123867,181.112000,N,06710.667000,W,2,10,0.6,791.6,M,-32.8,M,,*4D
$SDDBT,14.000000,f,4.270000,M,2.330000,F*
$GPGGA,123868,181.077000,N,06710.675000,W,2,10,0.6,791.6,M,-32.8,M,,*43
$SDDBT,14.000000,f,4.270000,M,2.330000,F*
$GPGGA,123869,181.043000,N,06710.675000,W,2,10,0.6,791.6,M,-32.8,M,,*45
$SDDBT,14.000000,f,4.270000,M,2.330000,F*
$GPGGA,123870,181.011000,N,06710.683000,W,2,10,0.6,791.6,M,-32.8,M,,*43
$SDDBT,14.000000,f,4.270000,M,2.330000,F*
$GPGGA,123871,180.982000,N,06710.688000,W,2,10,0.6,791.6,M,-32.8,M,,*4B
$SDDBT,14.000000,f,4.270000,M,2.330000,F*
$GPGGA,123872,180.950000,N,06710.693000,W,2,10,0.6,791.6,M,-32.8,M,,*4D
$SDDBT,14.000000,f,4.270000,M,2.330000,F*
$GPGGA,123873,180.921000,N,06710.703000,W,2,10,0.6,791.6,M,-32.8,M,,*42
$SDDBT,14.000000,f,4.270000,M,2.330000,F*
$GPGGA,123874,180.891000,N,06710.706000,W,2,10,0.6,791.6,M,-32.8,M,,*4A
$SDDBT,14.000000,f,4.270000,M,2.330000,F*
$GPGGA,123875,180.864000,N,06710.708000,W,2,10,0.6,791.6,M,-32.8,M,,*4F
$SDDBT,14.000000,f,4.270000,M,2.330000,F*
$GPGGA,123876,180.840000,N,06710.719000,W,2,10,0.6,791.6,M,-32.8,M,,*4A
$SDDBT,14.000000,f,4.270000,M,2.330000,F*
$GPGGA,123877,180.806000,N,06710.737000,W,2,10,0.6,791.6,M,-32.8,M,,*45
$SDDBT,14.000000,f,4.270000,M,2.330000,F*
$GPGGA,123878,180.781000,N,06710.744000,W,2,10,0.6,791.6,M,-32.8,M,,*4E
$SDDBT,14.000000,f,4.270000,M,2.330000,F*
$GPGGA,123879,180.759000,N,06710.765000,W,2,10,0.6,791.6,M,-32.8,M,,*49
$SDDBT,15.000000,f,4.570000,M,2.500000,F*3
$GPGGA,123880,180.735000,N,06710.783000,W,2,10,0.6,791.6,M,-32.8,M,,*4D
$SDDBT,15.000000,f,4.570000,M,2.500000,F*3
$GPGGA,123881,180.703000,N,06710.809000,W,2,10,0.6,791.6,M,-32.8,M,,*44
$SDDBT,15.000000,f,4.570000,M,2.500000,F*3
$GPGGA,123882,180.688000,N,06710.824000,W,2,10,0.6,791.6,M,-32.8,M,,*4A
$SDDBT,16.000000,f,4.880000,M,2.670000,F*6
$GPGGA,123883,180.688000,N,06710.848000,W,2,10,0.6,791.6,M,-32.8,M,,*41
$SDDBT,16.000000,f,4.880000,M,2.670000,F*6
$GPGGA,123884,180.703000,N,06710.833000,W,2,10,0.6,791.6,M,-32.8,M,,*48
$SDDBT,16.000000,f,4.880000,M,2.670000,F*6
$GPGGA,123885,180.735000,N,06710.807000,W,2,10,0.6,791.6,M,-32.8,M,,*4B
$SDDBT,15.000000,f,4.570000,M,2.500000,F*3
$GPGGA,123886,180.759000,N,06710.789000,W,2,10,0.6,791.6,M,-32.8,M,,*4B
$SDDBT,15.000000,f,4.570000,M,2.500000,F*3
$GPGGA,123887,180.781000,N,06710.768000,W,2,10,0.6,791.6,M,-32.8,M,,*40
$SDDBT,15.000000,f,4.570000,M,2.500000,F*3
$GPGGA,123888,180.806000,N,06710.761000,W,2,10,0.6,791.6,M,-32.8,M,,*46
$SDDBT,15.000000,f,4.570000,M,2.500000,F*3
$GPGGA,123889,180.840000,N,06710.743000,W,2,10,0.6,791.6,M,-32.8,M,,*45
$SDDBT,15.000000,f,4.570000,M,2.500000,F*3
$GPGGA,123890,180.864000,N,06710.732000,W,2,10,0.6,791.6,M,-32.8,M,,*4D
$SDDBT,15.000000,f,4.570000,M,2.500000,F*3
$GPGGA,123891,180.891000,N,06710.730000,W,2,10,0.6,791.6,M,-32.8,M,,*44
$SDDBT,15.000000,f,4.570000,M,2.500000,F*3
$GPGGA,123892,180.921000,N,06710.727000,W,2,10,0.6,791.6,M,-32.8,M,,*4B
$SDDBT,15.000000,f,4.570000,M,2.500000,F*3
$GPGGA,123893,180.950000,N,06710.717000,W,2,10,0.6,791.6,M,-32.8,M,,*4F
$SDDBT,15.000000,f,4.570000,M,2.500000,F*3
$GPGGA,123894,180.982000,N,06710.712000,W,2,10,0.6,791.6,M,-32.8,M,,*42
$SDDBT,14.000000,f,4.270000,M,2.330000,F*
$GPGGA,123895,181.011000,N,06710.707000,W,2,10,0.6,791.6,M,-32.8,M,,*45
$SDDBT,14.000000,f,4.270000,M,2.330000,F*
$GPGGA,123896,181.043000,N,06710.699000,W,2,10,0.6,791.6,M,-32.8,M,,*47
$SDDBT,14.000000,f,4.270000,M,2.330000,F*
$GPGGA,123897,181.077000,N,06710.699000,W,2,10,0.6,791.6,M,-32.8,M,,*41
$SDDBT,14.000000,f,4.270000,M,2.330000,F*
$GPGGA,123898,181.112000,N,06710.691000,W,2,10,0.6,791.6,M,-32.8,M,,*44
$SDDBT,14.000000,f,4.270000,M,2.330000,F*
$GPGGA,123899,181.153000,N,06710.691000,W,2,10,0.6,791.6,M,-32.8,M,,*40
$SDDBT,14.000000,f,4.270000,M,2.330000,F*
$GPGGA,123900,181.185000,N,06710.694000,W,2,10,0.6,791.6,M,-32.8,M,,*4F
$SDDBT,14.000000,f,4.270000,M,2.330000,F*
$GPGGA,123901,181.217000,N,06710.696000,W,2,10,0.6,791.6,M,-32.8,M,,*44
$SDDBT,14.000000,f,4.270000,M,2.330000,F*
$GPGGA,123902,181.256000,N,06710.696000,W,2,10,0.6,791.6,M,-32.8,M,,*42
$SDDBT,14.000000,f,4.270000,M,2.330000,F*
$GPGGA,123903,181.278000,N,06710.696000,W,2,10,0.6,791.6,M,-32.8,M,,*4F
$SDDBT,14.000000,f,4.270000,M,2.330000,F*
$GPGGA,123904,181.315000,N,06710.701000,W,2,10,0.6,791.6,M,-32.8,M,,*4D
$SDDBT,14.000000,f,4.270000,M,2.330000,F*
$GPGGA,123905,181.344000,N,06710.707000,W,2,10,0.6,791.6,M,-32.8,M,,*4E
$SDDBT,15.000000,f,4.570000,M,2.500000,F*3
$GPGGA,123906,181.369000,N,06710.709000,W,2,10,0.6,791.6,M,-32.8,M,,*4C
$SDDBT,15.000000,f,4.570000,M,2.500000,F*3
$GPGGA,123907,181.393000,N,06710.719000,W,2,10,0.6,791.6,M,-32.8,M,,*49
$SDDBT,15.000000,f,4.570000,M,2.500000,F*3
$GPGGA,123908,181.418000,N,06710.735000,W,2,10,0.6,791.6,M,-32.8,M,,*4C
$SDDBT,15.000000,f,4.570000,M,2.500000,F*3
$GPGGA,123909,181.440000,N,06710.745000,W,2,10,0.6,791.6,M,-32.8,M,,*47
$SDDBT,15.000000,f,4.570000,M,2.500000,F*3
$GPGGA,123910,181.459000,N,06710.755000,W,2,10,0.6,791.6,M,-32.8,M,,*46
$SDDBT,15.000000,f,4.570000,M,2.500000,F*3
$GPGGA,123911,181.459000,N,06710.779000,W,2,10,0.6,791.6,M,-32.8,M,,*49
$SDDBT,15.000000,f,4.570000,M,2.500000,F*3
$GPGGA,123912,181.440000,N,06710.769000,W,2,10,0.6,791.6,M,-32.8,M,,*43
$SDDBT,15.000000,f,4.570000,M,2.500000,F*3
$GPGGA,123913,181.418000,N,06710.759000,W,2,10,0.6,791.6,M,-32.8,M,,*4C
$SDDBT,15.000000,f,4.570000,M,2.500000,F*3
$GPGGA,123914,181.393000,N,06710.743000,W,2,10,0.6,791.6,M,-32.8,M,,*44
$SDDBT,15.000000,f,4.570000,M,2.500000,F*3
$GPGGA,123915,181.369000,N,06710.733000,W,2,10,0.6,791.6,M,-32.8,M,,*47
$SDDBT,15.000000,f,4.570000,M,2.500000,F*3
$GPGGA,123916,181.344000,N,06710.731000,W,2,10,0.6,791.6,M,-32.8,M,,*49
$SDDBT,15.000000,f,4.570000,M,2.500000,F*3
$GPGGA,123917,181.315000,N,06710.725000,W,2,10,0.6,791.6,M,-32.8,M,,*49
$SDDBT,15.000000,f,4.570000,M,2.500000,F*3
$GPGGA,123918,181.278000,N,06710.720000,W,2,10,0.6,791.6,M,-32.8,M,,*49
$SDDBT,15.000000,f,4.570000,M,2.500000,F*3
$GPGGA,123919,181.256000,N,06710.720000,W,2,10,0.6,791.6,M,-32.8,M,,*44
$SDDBT,15.000000,f,4.570000,M,2.500000,F*3
$GPGGA,123920,181.217000,N,06710.720000,W,2,10,0.6,791.6,M,-32.8,M,,*4B
$SDDBT,15.000000,f,4.570000,M,2.500000,F*3
$GPGGA,123921,181.185000,N,06710.718000,W,2,10,0.6,791.6,M,-32.8,M,,*49
$SDDBT,14.000000,f,4.270000,M,2.330000,F*
$GPGGA,123922,181.153000,N,06710.715000,W,2,10,0.6,791.6,M,-32.8,M,,*4C
$SDDBT,14.000000,f,4.270000,M,2.330000,F*
$GPGGA,123923,181.112000,N,06710.715000,W,2,10,0.6,791.6,M,-32.8,M,,*48
$SDDBT,14.000000,f,4.270000,M,2.330000,F*
$GPGGA,123924,181.077000,N,06710.723000,W,2,10,0.6,791.6,M,-32.8,M,,*48
$SDDBT,15.000000,f,4.570000,M,2.500000,F*3
$GPGGA,123925,181.043000,N,06710.723000,W,2,10,0.6,791.6,M,-32.8,M,,*4E
$SDDBT,14.000000,f,4.270000,M,2.330000,F*
$GPGGA,123926,181.011000,N,06710.731000,W,2,10,0.6,791.6,M,-32.8,M,,*49
$SDDBT,15.000000,f,4.570000,M,2.500000,F*3
$GPGGA,123927,180.982000,N,06710.736000,W,2,10,0.6,791.6,M,-32.8,M,,*4D
$SDDBT,16.000000,f,4.880000,M,2.670000,F*6
$GPGGA,123928,180.950000,N,06710.741000,W,2,10,0.6,791.6,M,-32.8,M,,*4D
$SDDBT,16.000000,f,4.880000,M,2.670000,F*6
$GPGGA,123929,180.921000,N,06710.751000,W,2,10,0.6,791.6,M,-32.8,M,,*4B
$SDDBT,16.000000,f,4.880000,M,2.670000,F*6
$GPGGA,123930,180.891000,N,06710.754000,W,2,10,0.6,791.6,M,-32.8,M,,*4C
$SDDBT,16.000000,f,4.880000,M,2.670000,F*6
$GPGGA,123931,180.864000,N,06710.756000,W,2,10,0.6,791.6,M,-32.8,M,,*45
$SDDBT,15.000000,f,4.570000,M,2.500000,F*3
$GPGGA,123932,180.840000,N,06710.767000,W,2,10,0.6,791.6,M,-32.8,M,,*42
$SDDBT,15.000000,f,4.570000,M,2.500000,F*3
$GPGGA,123933,180.806000,N,06710.785000,W,2,10,0.6,791.6,M,-32.8,M,,*4D
$SDDBT,16.000000,f,4.880000,M,2.670000,F*6
$GPGGA,123934,180.781000,N,06710.792000,W,2,10,0.6,791.6,M,-32.8,M,,*4C
$SDDBT,16.000000,f,4.880000,M,2.670000,F*6
$GPGGA,123935,180.759000,N,06710.813000,W,2,10,0.6,791.6,M,-32.8,M,,*4E
$SDDBT,16.000000,f,4.880000,M,2.670000,F*6
$GPGGA,123936,180.735000,N,06710.831000,W,2,10,0.6,791.6,M,-32.8,M,,*47
$SDDBT,16.000000,f,4.880000,M,2.670000,F*6
$GPGGA,123937,180.703000,N,06710.857000,W,2,10,0.6,791.6,M,-32.8,M,,*43
$SDDBT,16.000000,f,4.880000,M,2.670000,F*6
$GPGGA,123938,180.688000,N,06710.872000,W,2,10,0.6,791.6,M,-32.8,M,,*49
$SDDBT,16.000000,f,4.880000,M,2.670000,F*6
$GPGGA,123939,180.688000,N,06710.896000,W,2,10,0.6,791.6,M,-32.8,M,,*42
$SDDBT,17.000000,f,5.180000,M,2.830000,F*5
$GPGGA,123940,180.703000,N,06710.881000,W,2,10,0.6,791.6,M,-32.8,M,,*48
$SDDBT,16.000000,f,4.880000,M,2.670000,F*6
$GPGGA,123941,180.735000,N,06710.855000,W,2,10,0.6,791.6,M,-32.8,M,,*45
$SDDBT,16.000000,f,4.880000,M,2.670000,F*6
$GPGGA,123942,180.759000,N,06710.837000,W,2,10,0.6,791.6,M,-32.8,M,,*48
$SDDBT,17.000000,f,5.180000,M,2.830000,F*5
$GPGGA,123943,180.781000,N,06710.816000,W,2,10,0.6,791.6,M,-32.8,M,,*4F
$SDDBT,16.000000,f,4.880000,M,2.670000,F*6
$GPGGA,123944,180.806000,N,06710.809000,W,2,10,0.6,791.6,M,-32.8,M,,*46
$SDDBT,16.000000,f,4.880000,M,2.670000,F*6
$GPGGA,123945,180.840000,N,06710.791000,W,2,10,0.6,791.6,M,-32.8,M,,*4B
$SDDBT,16.000000,f,4.880000,M,2.670000,F*6
$GPGGA,123946,180.864000,N,06710.780000,W,2,10,0.6,791.6,M,-32.8,M,,*4E
$SDDBT,15.000000,f,4.570000,M,2.500000,F*3
$GPGGA,123947,180.891000,N,06710.778000,W,2,10,0.6,791.6,M,-32.8,M,,*42
$SDDBT,16.000000,f,4.880000,M,2.670000,F*6
$GPGGA,123948,180.921000,N,06710.775000,W,2,10,0.6,791.6,M,-32.8,M,,*4A
$SDDBT,16.000000,f,4.880000,M,2.670000,F*6
$GPGGA,123949,180.950000,N,06710.765000,W,2,10,0.6,791.6,M,-32.8,M,,*4C
$SDDBT,16.000000,f,4.880000,M,2.670000,F*6
$GPGGA,123950,180.982000,N,06710.760000,W,2,10,0.6,791.6,M,-32.8,M,,*4E
$SDDBT,16.000000,f,4.880000,M,2.670000,F*6
$GPGGA,123951,181.011000,N,06710.755000,W,2,10,0.6,791.6,M,-32.8,M,,*4B
$SDDBT,16.000000,f,4.880000,M,2.670000,F*6
$GPGGA,123952,181.043000,N,06710.747000,W,2,10,0.6,791.6,M,-32.8,M,,*4C
$SDDBT,15.000000,f,4.570000,M,2.500000,F*3
$GPGGA,123953,181.077000,N,06710.747000,W,2,10,0.6,791.6,M,-32.8,M,,*4A
$SDDBT,17.000000,f,5.180000,M,2.830000,F*5
$GPGGA,123954,181.112000,N,06710.739000,W,2,10,0.6,791.6,M,-32.8,M,,*46
$SDDBT,17.000000,f,5.180000,M,2.830000,F*5
$GPGGA,123955,181.153000,N,06710.739000,W,2,10,0.6,791.6,M,-32.8,M,,*42
$SDDBT,16.000000,f,4.880000,M,2.670000,F*6
$GPGGA,123956,181.185000,N,06710.742000,W,2,10,0.6,791.6,M,-32.8,M,,*46
$SDDBT,16.000000,f,4.880000,M,2.670000,F*6
$GPGGA,123957,181.217000,N,06710.744000,W,2,10,0.6,791.6,M,-32.8,M,,*49
$SDDBT,16.000000,f,4.880000,M,2.670000,F*6
$GPGGA,123958,181.256000,N,06710.744000,W,2,10,0.6,791.6,M,-32.8,M,,*43
$SDDBT,16.000000,f,4.880000,M,2.670000,F*6
$GPGGA,123959,181.278000,N,06710.744000,W,2,10,0.6,791.6,M,-32.8,M,,*4E
$SDDBT,16.000000,f,4.880000,M,2.670000,F*6
$GPGGA,123960,181.315000,N,06710.749000,W,2,10,0.6,791.6,M,-32.8,M,,*43
$SDDBT,15.000000,f,4.570000,M,2.500000,F*3
$GPGGA,123961,181.344000,N,06710.755000,W,2,10,0.6,791.6,M,-32.8,M,,*4B
$SDDBT,15.000000,f,4.570000,M,2.500000,F*3
$GPGGA,123962,181.369000,N,06710.757000,W,2,10,0.6,791.6,M,-32.8,M,,*45
$SDDBT,15.000000,f,4.570000,M,2.500000,F*3
$GPGGA,123963,181.393000,N,06710.767000,W,2,10,0.6,791.6,M,-32.8,M,,*42
$SDDBT,15.000000,f,4.570000,M,2.500000,F*3
$GPGGA,123964,181.418000,N,06710.783000,W,2,10,0.6,791.6,M,-32.8,M,,*4B
$SDDBT,16.000000,f,4.880000,M,2.670000,F*6
$GPGGA,123965,181.440000,N,06710.793000,W,2,10,0.6,791.6,M,-32.8,M,,*46
$SDDBT,16.000000,f,4.880000,M,2.670000,F*6
$GPGGA,123966,181.459000,N,06710.803000,W,2,10,0.6,791.6,M,-32.8,M,,*4B
$SDDBT,16.000000,f,4.880000,M,2.670000,F*6
$GPGGA,123967,181.459000,N,06710.827000,W,2,10,0.6,791.6,M,-32.8,M,,*4C
$SDDBT,16.000000,f,4.880000,M,2.670000,F*6
$GPGGA,123968,181.440000,N,06710.817000,W,2,10,0.6,791.6,M,-32.8,M,,*48
$SDDBT,16.000000,f,4.880000,M,2.670000,F*6
$GPGGA,123969,181.418000,N,06710.807000,W,2,10,0.6,791.6,M,-32.8,M,,*45
$SDDBT,16.000000,f,4.880000,M,2.670000,F*6
$GPGGA,123970,181.393000,N,06710.791000,W,2,10,0.6,791.6,M,-32.8,M,,*49
$SDDBT,16.000000,f,4.880000,M,2.670000,F*6
$GPGGA,123971,181.369000,N,06710.781000,W,2,10,0.6,791.6,M,-32.8,M,,*4C
$SDDBT,16.000000,f,4.880000,M,2.670000,F*6
$GPGGA,123972,181.344000,N,06710.779000,W,2,10,0.6,791.6,M,-32.8,M,,*47
$SDDBT,16.000000,f,4.880000,M,2.670000,F*6
$GPGGA,123973,181.315000,N,06710.773000,W,2,10,0.6,791.6,M,-32.8,M,,*48
$SDDBT,16.000000,f,4.880000,M,2.670000,F*6
$GPGGA,123974,181.278000,N,06710.768000,W,2,10,0.6,791.6,M,-32.8,M,,*4F
$SDDBT,16.000000,f,4.880000,M,2.670000,F*6
$GPGGA,123975,181.256000,N,06710.768000,W,2,10,0.6,791.6,M,-32.8,M,,*42
$SDDBT,16.000000,f,4.880000,M,2.670000,F*6
$GPGGA,123976,181.217000,N,06710.768000,W,2,10,0.6,791.6,M,-32.8,M,,*44
$SDDBT,16.000000,f,4.880000,M,2.670000,F*6
$GPGGA,123977,181.185000,N,06710.766000,W,2,10,0.6,791.6,M,-32.8,M,,*43
$SDDBT,16.000000,f,4.880000,M,2.670000,F*6
$GPGGA,123978,181.153000,N,06710.763000,W,2,10,0.6,791.6,M,-32.8,M,,*42
$SDDBT,17.000000,f,5.180000,M,2.830000,F*5
$GPGGA,123979,181.112000,N,06710.763000,W,2,10,0.6,791.6,M,-32.8,M,,*46
$SDDBT,17.000000,f,5.180000,M,2.830000,F*5
$GPGGA,123980,181.077000,N,06710.771000,W,2,10,0.6,791.6,M,-32.8,M,,*41
$SDDBT,18.000000,f,5.490000,M,3.000000,F*4
$GPGGA,123981,181.043000,N,06710.771000,W,2,10,0.6,791.6,M,-32.8,M,,*47
$SDDBT,17.000000,f,5.180000,M,2.830000,F*5
$GPGGA,123982,181.011000,N,06710.779000,W,2,10,0.6,791.6,M,-32.8,M,,*4B
$SDDBT,16.000000,f,4.880000,M,2.670000,F*6
$GPGGA,123983,180.982000,N,06710.784000,W,2,10,0.6,791.6,M,-32.8,M,,*4A
$SDDBT,17.000000,f,5.180000,M,2.830000,F*5
$GPGGA,123984,180.950000,N,06710.789000,W,2,10,0.6,791.6,M,-32.8,M,,*4F
$SDDBT,17.000000,f,5.180000,M,2.830000,F*5
$GPGGA,123985,180.921000,N,06710.799000,W,2,10,0.6,791.6,M,-32.8,M,,*49
$SDDBT,17.000000,f,5.180000,M,2.830000,F*5
$GPGGA,123986,180.891000,N,06710.802000,W,2,10,0.6,791.6,M,-32.8,M,,*4D
$SDDBT,16.000000,f,4.880000,M,2.670000,F*6
$GPGGA,123987,180.864000,N,06710.804000,W,2,10,0.6,791.6,M,-32.8,M,,*40
$SDDBT,17.000000,f,5.180000,M,2.830000,F*5
$GPGGA,123988,180.840000,N,06710.815000,W,2,10,0.6,791.6,M,-32.8,M,,*49
$SDDBT,16.000000,f,4.880000,M,2.670000,F*6
$GPGGA,123989,180.806000,N,06710.833000,W,2,10,0.6,791.6,M,-32.8,M,,*4E
$SDDBT,16.000000,f,4.880000,M,2.670000,F*6
$GPGGA,123990,180.781000,N,06710.840000,W,2,10,0.6,791.6,M,-32.8,M,,*42
$SDDBT,17.000000,f,5.180000,M,2.830000,F*5
$GPGGA,123991,180.759000,N,06710.861000,W,2,10,0.6,791.6,M,-32.8,M,,*45
$SDDBT,16.000000,f,4.880000,M,2.670000,F*6
$GPGGA,123992,180.735000,N,06710.879000,W,2,10,0.6,791.6,M,-32.8,M,,*45
$SDDBT,16.000000,f,4.880000,M,2.670000,F*6
$GPGGA,123993,180.703000,N,06710.905000,W,2,10,0.6,791.6,M,-32.8,M,,*4B
$SDDBT,16.000000,f,4.880000,M,2.670000,F*6
$GPGGA,123994,180.688000,N,06710.920000,W,2,10,0.6,791.6,M,-32.8,M,,*49
$SDDBT,18.000000,f,5.490000,M,3.000000,F*4
$GPGGA,123995,180.688000,N,06710.944000,W,2,10,0.6,791.6,M,-32.8,M,,*4A
$SDDBT,18.000000,f,5.490000,M,3.000000,F*4
$GPGGA,123996,180.703000,N,06710.929000,W,2,10,0.6,791.6,M,-32.8,M,,*40
$SDDBT,18.000000,f,5.490000,M,3.000000,F*4
$GPGGA,123997,180.735000,N,06710.903000,W,2,10,0.6,791.6,M,-32.8,M,,*4C
$SDDBT,18.000000,f,5.490000,M,3.000000,F*4
$GPGGA,123998,180.759000,N,06710.885000,W,2,10,0.6,791.6,M,-32.8,M,,*46
$SDDBT,17.000000,f,5.180000,M,2.830000,F*5
$GPGGA,123999,180.781000,N,06710.864000,W,2,10,0.6,791.6,M,-32.8,M,,*4D
$SDDBT,17.000000,f,5.180000,M,2.830000,F*5
$GPGGA,124000,180.806000,N,06710.857000,W,2,10,0.6,791.6,M,-32.8,M,,*43
$SDDBT,17.000000,f,5.180000,M,2.830000,F*5
$GPGGA,124001,180.840000,N,06710.839000,W,2,10,0.6,791.6,M,-32.8,M,,*48
$SDDBT,16.000000,f,4.880000,M,2.670000,F*6
$GPGGA,124002,180.864000,N,06710.828000,W,2,10,0.6,791.6,M,-32.8,M,,*4D
$SDDBT,17.000000,f,5.180000,M,2.830000,F*5
$GPGGA,124003,180.891000,N,06710.826000,W,2,10,0.6,791.6,M,-32.8,M,,*48
$SDDBT,17.000000,f,5.180000,M,2.830000,F*5
$GPGGA,124004,180.921000,N,06710.823000,W,2,10,0.6,791.6,M,-32.8,M,,*40
$SDDBT,17.000000,f,5.180000,M,2.830000,F*5
$GPGGA,124005,180.950000,N,06710.813000,W,2,10,0.6,791.6,M,-32.8,M,,*44
$SDDBT,17.000000,f,5.180000,M,2.830000,F*5
$GPGGA,124006,180.982000,N,06710.808000,W,2,10,0.6,791.6,M,-32.8,M,,*42
$SDDBT,17.000000,f,5.180000,M,2.830000,F*5
$GPGGA,124007,181.011000,N,06710.803000,W,2,10,0.6,791.6,M,-32.8,M,,*4A
$SDDBT,16.000000,f,4.880000,M,2.670000,F*6
$GPGGA,124008,181.043000,N,06710.795000,W,2,10,0.6,791.6,M,-32.8,M,,*42
$SDDBT,17.000000,f,5.180000,M,2.830000,F*5
$GPGGA,124009,181.077000,N,06710.795000,W,2,10,0.6,791.6,M,-32.8,M,,*44
$SDDBT,18.000000,f,5.490000,M,3.000000,F*4
$GPGGA,124010,181.112000,N,06710.787000,W,2,10,0.6,791.6,M,-32.8,M,,*4D
$SDDBT,17.000000,f,5.180000,M,2.830000,F*5
$GPGGA,124011,181.153000,N,06710.787000,W,2,10,0.6,791.6,M,-32.8,M,,*49
$SDDBT,17.000000,f,5.180000,M,2.830000,F*5
$GPGGA,124012,181.185000,N,06710.790000,W,2,10,0.6,791.6,M,-32.8,M,,*47
$SDDBT,16.000000,f,4.880000,M,2.670000,F*6
$GPGGA,124013,181.217000,N,06710.792000,W,2,10,0.6,791.6,M,-32.8,M,,*4C
$SDDBT,16.000000,f,4.880000,M,2.670000,F*6
$GPGGA,124014,181.256000,N,06710.792000,W,2,10,0.6,791.6,M,-32.8,M,,*4E
$SDDBT,16.000000,f,4.880000,M,2.670000,F*6
$GPGGA,124015,181.278000,N,06710.792000,W,2,10,0.6,791.6,M,-32.8,M,,*43
$SDDBT,16.000000,f,4.880000,M,2.670000,F*6
$GPGGA,124016,181.315000,N,06710.797000,W,2,10,0.6,791.6,M,-32.8,M,,*4F
$SDDBT,16.000000,f,4.880000,M,2.670000,F*6
$GPGGA,124017,181.344000,N,06710.803000,W,2,10,0.6,791.6,M,-32.8,M,,*48
$SDDBT,16.000000,f,4.880000,M,2.670000,F*6
$GPGGA,124018,181.369000,N,06710.805000,W,2,10,0.6,791.6,M,-32.8,M,,*4E
$SDDBT,17.000000,f,5.180000,M,2.830000,F*5
$GPGGA,124019,181.393000,N,06710.815000,W,2,10,0.6,791.6,M,-32.8,M,,*4B
$SDDBT,16.000000,f,4.880000,M,2.670000,F*6
$GPGGA,124020,181.418000,N,06710.831000,W,2,10,0.6,791.6,M,-32.8,M,,*43
$SDDBT,16.000000,f,4.880000,M,2.670000,F*6
$GPGGA,124021,181.440000,N,06710.841000,W,2,10,0.6,791.6,M,-32.8,M,,*48
$SDDBT,16.000000,f,4.880000,M,2.670000,F*6
$GPGGA,124022,181.459000,N,06710.851000,W,2,10,0.6,791.6,M,-32.8,M,,*42
$SDDBT,16.000000,f,4.880000,M,2.670000,F*6
$GPGGA,124023,181.459000,N,06710.875000,W,2,10,0.6,791.6,M,-32.8,M,,*45
$SDDBT,16.000000,f,4.880000,M,2.670000,F*6
$GPGGA,124024,181.440000,N,06710.865000,W,2,10,0.6,791.6,M,-32.8,M,,*4B
$SDDBT,17.000000,f,5.180000,M,2.830000,F*5
$GPGGA,124025,181.418000,N,06710.855000,W,2,10,0.6,791.6,M,-32.8,M,,*44
$SDDBT,17.000000,f,5.180000,M,2.830000,F*5
$GPGGA,124026,181.393000,N,06710.839000,W,2,10,0.6,791.6,M,-32.8,M,,*49
$SDDBT,16.000000,f,4.880000,M,2.670000,F*6
$GPGGA,124027,181.369000,N,06710.829000,W,2,10,0.6,791.6,M,-32.8,M,,*4C
$SDDBT,17.000000,f,5.180000,M,2.830000,F*5
$GPGGA,124028,181.344000,N,06710.827000,W,2,10,0.6,791.6,M,-32.8,M,,*42
$SDDBT,17.000000,f,5.180000,M,2.830000,F*5
$GPGGA,124029,181.315000,N,06710.821000,W,2,10,0.6,791.6,M,-32.8,M,,*41
$SDDBT,17.000000,f,5.180000,M,2.830000,F*5
$GPGGA,124030,181.278000,N,06710.816000,W,2,10,0.6,791.6,M,-32.8,M,,*47
$SDDBT,17.000000,f,5.180000,M,2.830000,F*5
$GPGGA,124031,181.256000,N,06710.816000,W,2,10,0.6,791.6,M,-32.8,M,,*4A
$SDDBT,16.000000,f,4.880000,M,2.670000,F*6
$GPGGA,124032,181.217000,N,06710.816000,W,2,10,0.6,791.6,M,-32.8,M,,*4C
$SDDBT,16.000000,f,4.880000,M,2.670000,F*6
$GPGGA,124033,181.185000,N,06710.814000,W,2,10,0.6,791.6,M,-32.8,M,,*47
$SDDBT,16.000000,f,4.880000,M,2.670000,F*6
$GPGGA,124034,181.153000,N,06710.811000,W,2,10,0.6,791.6,M,-32.8,M,,*4E
$SDDBT,17.000000,f,5.180000,M,2.830000,F*5
$GPGGA,124035,181.112000,N,06710.811000,W,2,10,0.6,791.6,M,-32.8,M,,*4A
$SDDBT,17.000000,f,5.180000,M,2.830000,F*5
$GPGGA,124036,181.077000,N,06710.819000,W,2,10,0.6,791.6,M,-32.8,M,,*43
$SDDBT,18.000000,f,5.490000,M,3.000000,F*4
$GPGGA,124037,181.043000,N,06710.819000,W,2,10,0.6,791.6,M,-32.8,M,,*45
$SDDBT,17.000000,f,5.180000,M,2.830000,F*5
$GPGGA,124038,181.011000,N,06710.827000,W,2,10,0.6,791.6,M,-32.8,M,,*40
$SDDBT,17.000000,f,5.180000,M,2.830000,F*5
$GPGGA,124039,180.982000,N,06710.832000,W,2,10,0.6,791.6,M,-32.8,M,,*47
$SDDBT,17.000000,f,5.180000,M,2.830000,F*5
$GPGGA,124040,180.950000,N,06710.837000,W,2,10,0.6,791.6,M,-32.8,M,,*43
$SDDBT,17.000000,f,5.180000,M,2.830000,F*5
