$GPGGA,123519,181.800000,N,06711.497000,W,2,10,0.6,791.6,M,-32.8,M,,*4F
$SDDBT,7.000000,f,2.130000,M,1.170000,F*36
$GPGGA,123520,181.775000,N,06711.430000,W,2,10,0.6,791.6,M,-32.8,M,,*45
$SDDBT,8.000000,f,2.440000,M,1.330000,F*3D
$GPGGA,123521,181.746000,N,06711.373000,W,2,10,0.6,791.6,M,-32.8,M,,*44
$SDDBT,7.000000,f,2.130000,M,1.170000,F*36
$GPGGA,123522,181.721000,N,06711.301000,W,2,10,0.6,791.6,M,-32.8,M,,*43
$SDDBT,7.000000,f,2.130000,M,1.170000,F*36
$GPGGA,123523,181.702000,N,06711.239000,W,2,10,0.6,791.6,M,-32.8,M,,*49
$SDDBT,8.000000,f,2.440000,M,1.330000,F*3D
$GPGGA,123524,181.668000,N,06711.177000,W,2,10,0.6,791.6,M,-32.8,M,,*4A
$SDDBT,8.000000,f,2.440000,M,1.330000,F*3D
$GPGGA,123525,181.643000,N,06711.116000,W,2,10,0.6,791.6,M,-32.8,M,,*45
$SDDBT,10.000000,f,3.050000,M,1.670000,F*1
$GPGGA,123526,181.619000,N,06711.054000,W,2,10,0.6,791.6,M,-32.8,M,,*4E
$SDDBT,10.000000,f,3.050000,M,1.670000,F*1
$GPGGA,123527,181.589000,N,06710.971000,W,2,10,0.6,791.6,M,-32.8,M,,*4A
$SDDBT,16.000000,f,4.880000,M,2.670000,F*6
$GPGGA,123528,181.565000,N,06710.899000,W,2,10,0.6,791.6,M,-32.8,M,,*40
$SDDBT,16.000000,f,4.880000,M,2.670000,F*6
$GPGGA,123529,181.525000,N,06710.817000,W,2,10,0.6,791.6,M,-32.8,M,,*43
$SDDBT,15.000000,f,4.570000,M,2.500000,F*3
$GPGGA,123530,181.486000,N,06710.740000,W,2,10,0.6,791.6,M,-32.8,M,,*4E
$SDDBT,15.000000,f,4.570000,M,2.500000,F*3
$GPGGA,123531,181.457000,N,06710.683000,W,2,10,0.6,791.6,M,-32.8,M,,*4D
$SDDBT,13.000000,f,3.960000,M,2.170000,F*C
$GPGGA,123532,181.423000,N,06710.621000,W,2,10,0.6,791.6,M,-32.8,M,,*45
$SDDBT,14.000000,f,4.270000,M,2.330000,F*
$GPGGA,123533,181.364000,N,06710.585000,W,2,10,0.6,791.6,M,-32.8,M,,*4D
$SDDBT,14.000000,f,4.270000,M,2.330000,F*
$GPGGA,123534,181.315000,N,06710.544000,W,2,10,0.6,791.6,M,-32.8,M,,*41
$SDDBT,14.000000,f,4.270000,M,2.330000,F*
$GPGGA,123535,181.237000,N,06710.518000,W,2,10,0.6,791.6,M,-32.8,M,,*48
$SDDBT,12.000000,f,3.660000,M,2.000000,F*4
$GPGGA,123536,181.173000,N,06710.513000,W,2,10,0.6,791.6,M,-32.8,M,,*43
$SDDBT,12.000000,f,3.660000,M,2.000000,F*4
$GPGGA,123537,181.114000,N,06710.518000,W,2,10,0.6,791.6,M,-32.8,M,,*48
$SDDBT,12.000000,f,3.660000,M,2.000000,F*4
$GPGGA,123538,181.046000,N,06710.518000,W,2,10,0.6,791.6,M,-32.8,M,,*41
$SDDBT,11.000000,f,3.350000,M,1.830000,F*9
$GPGGA,123539,180.982000,N,06710.528000,W,2,10,0.6,791.6,M,-32.8,M,,*43
$SDDBT,11.000000,f,3.350000,M,1.830000,F*9
$GPGGA,123540,180.923000,N,06710.549000,W,2,10,0.6,791.6,M,-32.8,M,,*41
$SDDBT,9.000000,f,2.740000,M,1.500000,F*3A
$GPGGA,123541,180.869000,N,06710.580000,W,2,10,0.6,791.6,M,-32.8,M,,*4A
$SDDBT,12.000000,f,3.660000,M,2.000000,F*4
$GPGGA,123542,180.825000,N,06710.601000,W,2,10,0.6,791.6,M,-32.8,M,,*4B
$SDDBT,11.000000,f,3.350000,M,1.830000,F*9
$GPGGA,123543,180.757000,N,06710.657000,W,2,10,0.6,791.6,M,-32.8,M,,*43
$SDDBT,12.000000,f,3.660000,M,2.000000,F*4
$GPGGA,123544,180.708000,N,06710.688000,W,2,10,0.6,791.6,M,-32.8,M,,*4C
$SDDBT,15.000000,f,4.570000,M,2.500000,F*3
$GPGGA,123545,180.664000,N,06710.740000,W,2,10,0.6,791.6,M,-32.8,M,,*43
$SDDBT,11.000000,f,3.350000,M,1.830000,F*9
$GPGGA,123546,180.644000,N,06710.791000,W,2,10,0.6,791.6,M,-32.8,M,,*4E
$SDDBT,10.000000,f,3.050000,M,1.670000,F*1
$GPGGA,123547,180.610000,N,06710.873000,W,2,10,0.6,791.6,M,-32.8,M,,*4D
$SDDBT,15.000000,f,4.570000,M,2.500000,F*3
$GPGGA,123548,180.561000,N,06710.961000,W,2,10,0.6,791.6,M,-32.8,M,,*45
$SDDBT,15.000000,f,4.570000,M,2.500000,F*3
$GPGGA,123549,180.517000,N,06711.069000,W,2,10,0.6,791.6,M,-32.8,M,,*45
$SDDBT,15.000000,f,4.570000,M,2.500000,F*3
$GPGGA,123550,180.477000,N,06711.172000,W,2,10,0.6,791.6,M,-32.8,M,,*41
$SDDBT,16.000000,f,4.880000,M,2.670000,F*6
$GPGGA,123551,180.448000,N,06711.275000,W,2,10,0.6,791.6,M,-32.8,M,,*48
$SDDBT,17.000000,f,5.180000,M,2.830000,F*5
$GPGGA,123552,180.399000,N,06711.399000,W,2,10,0.6,791.6,M,-32.8,M,,*43
$SDDBT,18.000000,f,5.490000,M,3.000000,F*4
$GPGGA,123553,180.365000,N,06711.486000,W,2,10,0.6,791.6,M,-32.8,M,,*48
$SDDBT,20.000000,f,6.100000,M,3.330000,F*
$GPGGA,123554,180.326000,N,06711.589000,W,2,10,0.6,791.6,M,-32.8,M,,*46
$SDDBT,21.000000,f,6.400000,M,3.500000,F*1
$GPGGA,123555,180.291000,N,06711.687000,W,2,10,0.6,791.6,M,-32.8,M,,*47
$SDDBT,16.000000,f,4.880000,M,2.670000,F*6
$GPGGA,123556,180.291000,N,06711.711000,W,2,10,0.6,791.6,M,-32.8,M,,*4A
$SDDBT,17.000000,f,5.180000,M,2.830000,F*5
$GPGGA,123557,180.326000,N,06711.613000,W,2,10,0.6,791.6,M,-32.8,M,,*45
$SDDBT,19.000000,f,5.790000,M,3.170000,F*
$GPGGA,123558,180.365000,N,06711.510000,W,2,10,0.6,791.6,M,-32.8,M,,*4D
$SDDBT,21.000000,f,6.400000,M,3.500000,F*1
$GPGGA,123559,180.399000,N,06711.423000,W,2,10,0.6,791.6,M,-32.8,M,,*4E
$SDDBT,20.000000,f,6.100000,M,3.330000,F*
$GPGGA,123560,180.448000,N,06711.299000,W,2,10,0.6,791.6,M,-32.8,M,,*48
$SDDBT,20.000000,f,6.100000,M,3.330000,F*
$GPGGA,123561,180.477000,N,06711.196000,W,2,10,0.6,791.6,M,-32.8,M,,*49
$SDDBT,17.000000,f,5.180000,M,2.830000,F*5
$GPGGA,123562,180.517000,N,06711.093000,W,2,10,0.6,791.6,M,-32.8,M,,*49
$SDDBT,15.000000,f,4.570000,M,2.500000,F*3
$GPGGA,123563,180.561000,N,06710.985000,W,2,10,0.6,791.6,M,-32.8,M,,*46
$SDDBT,15.000000,f,4.570000,M,2.500000,F*3
$GPGGA,123564,180.610000,N,06710.897000,W,2,10,0.6,791.6,M,-32.8,M,,*46
$SDDBT,16.000000,f,4.880000,M,2.670000,F*6
$GPGGA,123565,180.644000,N,06710.815000,W,2,10,0.6,791.6,M,-32.8,M,,*4C
$SDDBT,13.000000,f,3.960000,M,2.170000,F*C
$GPGGA,123566,180.664000,N,06710.764000,W,2,10,0.6,791.6,M,-32.8,M,,*44
$SDDBT,10.000000,f,3.050000,M,1.670000,F*1
$GPGGA,123567,180.708000,N,06710.712000,W,2,10,0.6,791.6,M,-32.8,M,,*4F
$SDDBT,14.000000,f,4.270000,M,2.330000,F*
$GPGGA,123568,180.757000,N,06710.681000,W,2,10,0.6,791.6,M,-32.8,M,,*41
$SDDBT,13.000000,f,3.960000,M,2.170000,F*C
$GPGGA,123569,180.825000,N,06710.625000,W,2,10,0.6,791.6,M,-32.8,M,,*44
$SDDBT,12.000000,f,3.660000,M,2.000000,F*4
$GPGGA,123570,180.869000,N,06710.604000,W,2,10,0.6,791.6,M,-32.8,M,,*47
$SDDBT,12.000000,f,3.660000,M,2.000000,F*4
$GPGGA,123571,180.923000,N,06710.573000,W,2,10,0.6,791.6,M,-32.8,M,,*4A
$SDDBT,11.000000,f,3.350000,M,1.830000,F*9
$GPGGA,123572,180.982000,N,06710.552000,W,2,10,0.6,791.6,M,-32.8,M,,*41
$SDDBT,12.000000,f,3.660000,M,2.000000,F*4
$GPGGA,123573,181.046000,N,06710.542000,W,2,10,0.6,791.6,M,-32.8,M,,*41
$SDDBT,12.000000,f,3.660000,M,2.000000,F*4
$GPGGA,123574,181.114000,N,06710.542000,W,2,10,0.6,791.6,M,-32.8,M,,*40
$SDDBT,13.000000,f,3.960000,M,2.170000,F*C
$GPGGA,123575,181.173000,N,06710.537000,W,2,10,0.6,791.6,M,-32.8,M,,*42
$SDDBT,12.000000,f,3.660000,M,2.000000,F*4
$GPGGA,123576,181.237000,N,06710.542000,W,2,10,0.6,791.6,M,-32.8,M,,*40
$SDDBT,13.000000,f,3.960000,M,2.170000,F*C
$GPGGA,123577,181.315000,N,06710.568000,W,2,10,0.6,791.6,M,-32.8,M,,*48
$SDDBT,14.000000,f,4.270000,M,2.330000,F*
$GPGGA,123578,181.364000,N,06710.609000,W,2,10,0.6,791.6,M,-32.8,M,,*45
$SDDBT,14.000000,f,4.270000,M,2.330000,F*
$GPGGA,123579,181.423000,N,06710.645000,W,2,10,0.6,791.6,M,-32.8,M,,*48
$SDDBT,14.000000,f,4.270000,M,2.330000,F*
$GPGGA,123580,181.457000,N,06710.707000,W,2,10,0.6,791.6,M,-32.8,M,,*4A
$SDDBT,14.000000,f,4.270000,M,2.330000,F*
$GPGGA,123581,181.486000,N,06710.764000,W,2,10,0.6,791.6,M,-32.8,M,,*42
$SDDBT,15.000000,f,4.570000,M,2.500000,F*3
$GPGGA,123582,181.525000,N,06710.841000,W,2,10,0.6,791.6,M,-32.8,M,,*41
$SDDBT,16.000000,f,4.880000,M,2.670000,F*6
$GPGGA,123583,181.565000,N,06710.923000,W,2,10,0.6,791.6,M,-32.8,M,,*41
$SDDBT,16.000000,f,4.880000,M,2.670000,F*6
$GPGGA,123584,181.589000,N,06710.995000,W,2,10,0.6,791.6,M,-32.8,M,,*49
$SDDBT,16.000000,f,4.880000,M,2.670000,F*6
$GPGGA,123585,181.619000,N,06711.078000,W,2,10,0.6,791.6,M,-32.8,M,,*49
$SDDBT,10.000000,f,3.050000,M,1.670000,F*1
$GPGGA,123586,181.643000,N,06711.140000,W,2,10,0.6,791.6,M,-32.8,M,,*4F
$SDDBT,9.000000,f,2.740000,M,1.500000,F*3A
$GPGGA,123587,181.668000,N,06711.201000,W,2,10,0.6,791.6,M,-32.8,M,,*41
$SDDBT,8.000000,f,2.440000,M,1.330000,F*3D
$GPGGA,123588,181.702000,N,06711.263000,W,2,10,0.6,791.6,M,-32.8,M,,*47
$SDDBT,8.000000,f,2.440000,M,1.330000,F*3D
$GPGGA,123589,181.721000,N,06711.325000,W,2,10,0.6,791.6,M,-32.8,M,,*44
$SDDBT,7.000000,f,2.130000,M,1.170000,F*36
$GPGGA,123590,181.746000,N,06711.397000,W,2,10,0.6,791.6,M,-32.8,M,,*44
$SDDBT,9.000000,f,2.740000,M,1.500000,F*3A
$GPGGA,123591,181.775000,N,06711.454000,W,2,10,0.6,791.6,M,-32.8,M,,*4D
$SDDBT,9.000000,f,2.740000,M,1.500000,F*3A
$GPGGA,123592,181.800000,N,06711.521000,W,2,10,0.6,791.6,M,-32.8,M,,*40
$SDDBT,12.000000,f,3.660000,M,2.000000,F*4
$GPGGA,123593,181.800000,N,06711.545000,W,2,10,0.6,791.6,M,-32.8,M,,*43
$SDDBT,16.000000,f,4.880000,M,2.670000,F*6
$GPGGA,123594,181.775000,N,06711.478000,W,2,10,0.6,791.6,M,-32.8,M,,*46
$SDDBT,11.000000,f,3.350000,M,1.830000,F*9
$GPGGA,123595,181.746000,N,06711.421000,W,2,10,0.6,791.6,M,-32.8,M,,*4B
$SDDBT,9.000000,f,2.740000,M,1.500000,F*3A
$GPGGA,123596,181.721000,N,06711.349000,W,2,10,0.6,791.6,M,-32.8,M,,*40
$SDDBT,7.000000,f,2.130000,M,1.170000,F*36
$GPGGA,123597,181.702000,N,06711.287000,W,2,10,0.6,791.6,M,-32.8,M,,*43
$SDDBT,8.000000,f,2.440000,M,1.330000,F*3D
$GPGGA,123598,181.668000,N,06711.225000,W,2,10,0.6,791.6,M,-32.8,M,,*49
$SDDBT,8.000000,f,2.440000,M,1.330000,F*3D
$GPGGA,123599,181.643000,N,06711.164000,W,2,10,0.6,791.6,M,-32.8,M,,*47
$SDDBT,9.000000,f,2.740000,M,1.500000,F*3A
$GPGGA,123600,181.619000,N,06711.102000,W,2,10,0.6,791.6,M,-32.8,M,,*4B
$SDDBT,11.000000,f,3.350000,M,1.830000,F*9
$GPGGA,123601,181.589000,N,06711.019000,W,2,10,0.6,791.6,M,-32.8,M,,*4B
$SDDBT,15.000000,f,4.570000,M,2.500000,F*3
$GPGGA,123602,181.565000,N,06710.947000,W,2,10,0.6,791.6,M,-32.8,M,,*49
$SDDBT,16.000000,f,4.880000,M,2.670000,F*6
$GPGGA,123603,181.525000,N,06710.865000,W,2,10,0.6,791.6,M,-32.8,M,,*4D
$SDDBT,16.000000,f,4.880000,M,2.670000,F*6
$GPGGA,123604,181.486000,N,06710.788000,W,2,10,0.6,791.6,M,-32.8,M,,*4E
$SDDBT,15.000000,f,4.570000,M,2.500000,F*3
$GPGGA,123605,181.457000,N,06710.731000,W,2,10,0.6,791.6,M,-32.8,M,,*41
$SDDBT,14.000000,f,4.270000,M,2.330000,F*
$GPGGA,123606,181.423000,N,06710.669000,W,2,10,0.6,791.6,M,-32.8,M,,*4D
$SDDBT,14.000000,f,4.270000,M,2.330000,F*
$GPGGA,123607,181.364000,N,06710.633000,W,2,10,0.6,791.6,M,-32.8,M,,*47
$SDDBT,15.000000,f,4.570000,M,2.500000,F*3
$GPGGA,123608,181.315000,N,06710.592000,W,2,10,0.6,791.6,M,-32.8,M,,*46
$SDDBT,13.000000,f,3.960000,M,2.170000,F*C
$GPGGA,123609,181.237000,N,06710.566000,W,2,10,0.6,791.6,M,-32.8,M,,*4D
$SDDBT,13.000000,f,3.960000,M,2.170000,F*C
$GPGGA,123610,181.173000,N,06710.561000,W,2,10,0.6,791.6,M,-32.8,M,,*41
$SDDBT,13.000000,f,3.960000,M,2.170000,F*C
$GPGGA,123611,181.114000,N,06710.566000,W,2,10,0.6,791.6,M,-32.8,M,,*46
$SDDBT,13.000000,f,3.960000,M,2.170000,F*C
$GPGGA,123612,181.046000,N,06710.566000,W,2,10,0.6,791.6,M,-32.8,M,,*43
$SDDBT,13.000000,f,3.960000,M,2.170000,F*C
$GPGGA,123613,180.982000,N,06710.576000,W,2,10,0.6,791.6,M,-32.8,M,,*43
$SDDBT,12.000000,f,3.660000,M,2.000000,F*4
$GPGGA,123614,180.923000,N,06710.597000,W,2,10,0.6,791.6,M,-32.8,M,,*40
$SDDBT,12.000000,f,3.660000,M,2.000000,F*4
$GPGGA,123615,180.869000,N,06710.628000,W,2,10,0.6,791.6,M,-32.8,M,,*49
$SDDBT,13.000000,f,3.960000,M,2.170000,F*C
$GPGGA,123616,180.825000,N,06710.649000,W,2,10,0.6,791.6,M,-32.8,M,,*45
$SDDBT,13.000000,f,3.960000,M,2.170000,F*C
$GPGGA,123617,180.757000,N,06710.705000,W,2,10,0.6,791.6,M,-32.8,M,,*47
$SDDBT,14.000000,f,4.270000,M,2.330000,F*
$GPGGA,123618,180.708000,N,06710.736000,W,2,10,0.6,791.6,M,-32.8,M,,*42
$SDDBT,13.000000,f,3.960000,M,2.170000,F*C
$GPGGA,123619,180.664000,N,06710.788000,W,2,10,0.6,791.6,M,-32.8,M,,*4D
$SDDBT,12.000000,f,3.660000,M,2.000000,F*4
$GPGGA,123620,180.644000,N,06710.839000,W,2,10,0.6,791.6,M,-32.8,M,,*40
$SDDBT,15.000000,f,4.570000,M,2.500000,F*3
$GPGGA,123621,180.610000,N,06710.921000,W,2,10,0.6,791.6,M,-32.8,M,,*48
$SDDBT,16.000000,f,4.880000,M,2.670000,F*6
$GPGGA,123622,180.561000,N,06711.009000,W,2,10,0.6,791.6,M,-32.8,M,,*4C
$SDDBT,15.000000,f,4.570000,M,2.500000,F*3
$GPGGA,123623,180.517000,N,06711.117000,W,2,10,0.6,791.6,M,-32.8,M,,*42
$SDDBT,15.000000,f,4.570000,M,2.500000,F*3
$GPGGA,123624,180.477000,N,06711.220000,W,2,10,0.6,791.6,M,-32.8,M,,*45
$SDDBT,19.000000,f,5.790000,M,3.170000,F*
$GPGGA,123625,180.448000,N,06711.323000,W,2,10,0.6,791.6,M,-32.8,M,,*4A
$SDDBT,21.000000,f,6.400000,M,3.500000,F*1
$GPGGA,123626,180.399000,N,06711.447000,W,2,10,0.6,791.6,M,-32.8,M,,*47
$SDDBT,20.000000,f,6.100000,M,3.330000,F*
$GPGGA,123627,180.365000,N,06711.534000,W,2,10,0.6,791.6,M,-32.8,M,,*40
$SDDBT,21.000000,f,6.400000,M,3.500000,F*1
$GPGGA,123628,180.326000,N,06711.637000,W,2,10,0.6,791.6,M,-32.8,M,,*48
$SDDBT,19.000000,f,5.790000,M,3.170000,F*
$GPGGA,123629,180.291000,N,06711.735000,W,2,10,0.6,791.6,M,-32.8,M,,*47
$SDDBT,18.000000,f,5.490000,M,3.000000,F*4
$GPGGA,123630,180.291000,N,06711.759000,W,2,10,0.6,791.6,M,-32.8,M,,*45
$SDDBT,20.000000,f,6.100000,M,3.330000,F*
$GPGGA,123631,180.326000,N,06711.661000,W,2,10,0.6,791.6,M,-32.8,M,,*43
$SDDBT,20.000000,f,6.100000,M,3.330000,F*
$GPGGA,123632,180.365000,N,06711.558000,W,2,10,0.6,791.6,M,-32.8,M,,*4E
$SDDBT,21.000000,f,6.400000,M,3.500000,F*1
$GPGGA,123633,180.399000,N,06711.471000,W,2,10,0.6,791.6,M,-32.8,M,,*46
$SDDBT,21.000000,f,6.400000,M,3.500000,F*1
$GPGGA,123634,180.448000,N,06711.347000,W,2,10,0.6,791.6,M,-32.8,M,,*48
$SDDBT,21.000000,f,6.400000,M,3.500000,F*1
$GPGGA,123635,180.477000,N,06711.244000,W,2,10,0.6,791.6,M,-32.8,M,,*47
$SDDBT,20.000000,f,6.100000,M,3.330000,F*
$GPGGA,123636,180.517000,N,06711.141000,W,2,10,0.6,791.6,M,-32.8,M,,*45
$SDDBT,16.000000,f,4.880000,M,2.670000,F*6
$GPGGA,123637,180.561000,N,06711.033000,W,2,10,0.6,791.6,M,-32.8,M,,*41
$SDDBT,15.000000,f,4.570000,M,2.500000,F*3
$GPGGA,123638,180.610000,N,06710.945000,W,2,10,0.6,791.6,M,-32.8,M,,*42
$SDDBT,16.000000,f,4.880000,M,2.670000,F*6
$GPGGA,123639,180.644000,N,06710.863000,W,2,10,0.6,791.6,M,-32.8,M,,*47
$SDDBT,15.000000,f,4.570000,M,2.500000,F*3
$GPGGA,123640,180.664000,N,06710.812000,W,2,10,0.6,791.6,M,-32.8,M,,*4D
$SDDBT,14.000000,f,4.270000,M,2.330000,F*
$GPGGA,123641,180.708000,N,06710.760000,W,2,10,0.6,791.6,M,-32.8,M,,*4D
$SDDBT,14.000000,f,4.270000,M,2.330000,F*
$GPGGA,123642,180.757000,N,06710.729000,W,2,10,0.6,791.6,M,-32.8,M,,*49
$SDDBT,14.000000,f,4.270000,M,2.330000,F*
$GPGGA,123643,180.825000,N,06710.673000,W,2,10,0.6,791.6,M,-32.8,M,,*4C
$SDDBT,14.000000,f,4.270000,M,2.330000,F*
$GPGGA,123644,180.869000,N,06710.652000,W,2,10,0.6,791.6,M,-32.8,M,,*40
$SDDBT,13.000000,f,3.960000,M,2.170000,F*C
$GPGGA,123645,180.923000,N,06710.621000,W,2,10,0.6,791.6,M,-32.8,M,,*4A
$SDDBT,12.000000,f,3.660000,M,2.000000,F*4
$GPGGA,123646,180.982000,N,06710.600000,W,2,10,0.6,791.6,M,-32.8,M,,*41
$SDDBT,12.000000,f,3.660000,M,2.000000,F*4
$GPGGA,123647,181.046000,N,06710.590000,W,2,10,0.6,791.6,M,-32.8,M,,*4A
$SDDBT,13.000000,f,3.960000,M,2.170000,F*C
$GPGGA,123648,181.114000,N,06710.590000,W,2,10,0.6,791.6,M,-32.8,M,,*43
$SDDBT,12.000000,f,3.660000,M,2.000000,F*4
$GPGGA,123649,181.173000,N,06710.585000,W,2,10,0.6,791.6,M,-32.8,M,,*47
$SDDBT,13.000000,f,3.960000,M,2.170000,F*C
$GPGGA,123650,181.237000,N,06710.590000,W,2,10,0.6,791.6,M,-32.8,M,,*48
$SDDBT,13.000000,f,3.960000,M,2.170000,F*C
$GPGGA,123651,181.315000,N,06710.616000,W,2,10,0.6,791.6,M,-32.8,M,,*45
$SDDBT,13.000000,f,3.960000,M,2.170000,F*C
$GPGGA,123652,181.364000,N,06710.657000,W,2,10,0.6,791.6,M,-32.8,M,,*45
$SDDBT,14.000000,f,4.270000,M,2.330000,F*
$GPGGA,123653,181.423000,N,06710.693000,W,2,10,0.6,791.6,M,-32.8,M,,*48
$SDDBT,14.000000,f,4.270000,M,2.330000,F*
$GPGGA,123654,181.457000,N,06710.755000,W,2,10,0.6,791.6,M,-32.8,M,,*47
$SDDBT,15.000000,f,4.570000,M,2.500000,F*3
$GPGGA,123655,181.486000,N,06710.812000,W,2,10,0.6,791.6,M,-32.8,M,,*46
$SDDBT,16.000000,f,4.880000,M,2.670000,F*6
$GPGGA,123656,181.525000,N,06710.889000,W,2,10,0.6,791.6,M,-32.8,M,,*4F
$SDDBT,17.000000,f,5.180000,M,2.830000,F*5
$GPGGA,123657,181.565000,N,06710.971000,W,2,10,0.6,791.6,M,-32.8,M,,*4C
$SDDBT,16.000000,f,4.880000,M,2.670000,F*6
$GPGGA,123658,181.589000,N,06711.043000,W,2,10,0.6,791.6,M,-32.8,M,,*48
$SDDBT,14.000000,f,4.270000,M,2.330000,F*
$GPGGA,123659,181.619000,N,06711.126000,W,2,10,0.6,791.6,M,-32.8,M,,*41
$SDDBT,11.000000,f,3.350000,M,1.830000,F*9
$GPGGA,123660,181.643000,N,06711.188000,W,2,10,0.6,791.6,M,-32.8,M,,*40
$SDDBT,9.000000,f,2.740000,M,1.500000,F*3A
$GPGGA,123661,181.668000,N,06711.249000,W,2,10,0.6,791.6,M,-32.8,M,,*46
$SDDBT,10.000000,f,3.050000,M,1.670000,F*1
$GPGGA,123662,181.702000,N,06711.311000,W,2,10,0.6,791.6,M,-32.8,M,,*44
$SDDBT,8.000000,f,2.440000,M,1.330000,F*3D
$GPGGA,123663,181.721000,N,06711.373000,W,2,10,0.6,791.6,M,-32.8,M,,*40
$SDDBT,12.000000,f,3.660000,M,2.000000,F*4
$GPGGA,123664,181.746000,N,06711.445000,W,2,10,0.6,791.6,M,-32.8,M,,*44
$SDDBT,12.000000,f,3.660000,M,2.000000,F*4
$GPGGA,123665,181.775000,N,06711.502000,W,2,10,0.6,791.6,M,-32.8,M,,*47
$SDDBT,13.000000,f,3.960000,M,2.170000,F*C
$GPGGA,123666,181.800000,N,06711.569000,W,2,10,0.6,791.6,M,-32.8,M,,*44
$SDDBT,16.000000,f,4.880000,M,2.670000,F*6
$GPGGA,123667,181.800000,N,06711.593000,W,2,10,0.6,791.6,M,-32.8,M,,*40
$SDDBT,17.000000,f,5.180000,M,2.830000,F*5
$GPGGA,123668,181.775000,N,06711.526000,W,2,10,0.6,791.6,M,-32.8,M,,*4C
$SDDBT,16.000000,f,4.880000,M,2.670000,F*6
$GPGGA,123669,181.746000,N,06711.469000,W,2,10,0.6,791.6,M,-32.8,M,,*47
$SDDBT,15.000000,f,4.570000,M,2.500000,F*3
$GPGGA,123670,181.721000,N,06711.397000,W,2,10,0.6,791.6,M,-32.8,M,,*48
$SDDBT,14.000000,f,4.270000,M,2.330000,F*
$GPGGA,123671,181.702000,N,06711.335000,W,2,10,0.6,791.6,M,-32.8,M,,*40
$SDDBT,9.000000,f,2.740000,M,1.500000,F*3A
$GPGGA,123672,181.668000,N,06711.273000,W,2,10,0.6,791.6,M,-32.8,M,,*4D
$SDDBT,11.000000,f,3.350000,M,1.830000,F*9
$GPGGA,123673,181.643000,N,06711.212000,W,2,10,0.6,791.6,M,-32.8,M,,*42
$SDDBT,9.000000,f,2.740000,M,1.500000,F*3A
$GPGGA,123674,181.619000,N,06711.150000,W,2,10,0.6,791.6,M,-32.8,M,,*4F
$SDDBT,11.000000,f,3.350000,M,1.830000,F*9
$GPGGA,123675,181.589000,N,06711.067000,W,2,10,0.6,791.6,M,-32.8,M,,*41
$SDDBT,14.000000,f,4.270000,M,2.330000,F*
$GPGGA,123676,181.565000,N,06710.995000,W,2,10,0.6,791.6,M,-32.8,M,,*45
$SDDBT,17.000000,f,5.180000,M,2.830000,F*5
$GPGGA,123677,181.525000,N,06710.913000,W,2,10,0.6,791.6,M,-32.8,M,,*4E
$SDDBT,17.000000,f,5.180000,M,2.830000,F*5
$GPGGA,123678,181.486000,N,06710.836000,W,2,10,0.6,791.6,M,-32.8,M,,*4F
$SDDBT,16.000000,f,4.880000,M,2.670000,F*6
$GPGGA,123679,181.457000,N,06710.779000,W,2,10,0.6,791.6,M,-32.8,M,,*46
$SDDBT,15.000000,f,4.570000,M,2.500000,F*3
$GPGGA,123680,181.423000,N,06710.717000,W,2,10,0.6,791.6,M,-32.8,M,,*4B
$SDDBT,15.000000,f,4.570000,M,2.500000,F*3
$GPGGA,123681,181.364000,N,06710.681000,W,2,10,0.6,791.6,M,-32.8,M,,*40
$SDDBT,14.000000,f,4.270000,M,2.330000,F*
$GPGGA,123682,181.315000,N,06710.640000,W,2,10,0.6,791.6,M,-32.8,M,,*48
$SDDBT,14.000000,f,4.270000,M,2.330000,F*
$GPGGA,123683,181.237000,N,06710.614000,W,2,10,0.6,791.6,M,-32.8,M,,*49
$SDDBT,13.000000,f,3.960000,M,2.170000,F*C
$GPGGA,123684,181.173000,N,06710.609000,W,2,10,0.6,791.6,M,-32.8,M,,*41
$SDDBT,13.000000,f,3.960000,M,2.170000,F*C
$GPGGA,123685,181.114000,N,06710.614000,W,2,10,0.6,791.6,M,-32.8,M,,*4D
$SDDBT,13.000000,f,3.960000,M,2.170000,F*C
$GPGGA,123686,181.046000,N,06710.614000,W,2,10,0.6,791.6,M,-32.8,M,,*48
$SDDBT,14.000000,f,4.270000,M,2.330000,F*
$GPGGA,123687,180.982000,N,06710.624000,W,2,10,0.6,791.6,M,-32.8,M,,*4A
$SDDBT,13.000000,f,3.960000,M,2.170000,F*C
$GPGGA,123688,180.923000,N,06710.645000,W,2,10,0.6,791.6,M,-32.8,M,,*49
$SDDBT,13.000000,f,3.960000,M,2.170000,F*C
$GPGGA,123689,180.869000,N,06710.676000,W,2,10,0.6,791.6,M,-32.8,M,,*47
$SDDBT,13.000000,f,3.960000,M,2.170000,F*C
$GPGGA,123690,180.825000,N,06710.697000,W,2,10,0.6,791.6,M,-32.8,M,,*48
$SDDBT,14.000000,f,4.270000,M,2.330000,F*
$GPGGA,123691,180.757000,N,06710.753000,W,2,10,0.6,791.6,M,-32.8,M,,*4A
$SDDBT,14.000000,f,4.270000,M,2.330000,F*
$GPGGA,123692,180.708000,N,06710.784000,W,2,10,0.6,791.6,M,-32.8,M,,*49
$SDDBT,15.000000,f,4.570000,M,2.500000,F*3
$GPGGA,123693,180.664000,N,06710.836000,W,2,10,0.6,791.6,M,-32.8,M,,*45
$SDDBT,15.000000,f,4.570000,M,2.500000,F*3
$GPGGA,123694,180.644000,N,06710.887000,W,2,10,0.6,791.6,M,-32.8,M,,*4A
$SDDBT,16.000000,f,4.880000,M,2.670000,F*6
$GPGGA,123695,180.610000,N,06710.969000,W,2,10,0.6,791.6,M,-32.8,M,,*4B
$SDDBT,17.000000,f,5.180000,M,2.830000,F*5
$GPGGA,123696,180.561000,N,06711.057000,W,2,10,0.6,791.6,M,-32.8,M,,*48
$SDDBT,16.000000,f,4.880000,M,2.670000,F*6
$GPGGA,123697,180.517000,N,06711.165000,W,2,10,0.6,791.6,M,-32.8,M,,*48
$SDDBT,20.000000,f,6.100000,M,3.330000,F*
$GPGGA,123698,180.477000,N,06711.268000,W,2,10,0.6,791.6,M,-32.8,M,,*4E
$SDDBT,20.000000,f,6.100000,M,3.330000,F*
$GPGGA,123699,180.448000,N,06711.371000,W,2,10,0.6,791.6,M,-32.8,M,,*4A
$SDDBT,21.000000,f,6.400000,M,3.500000,F*1
$GPGGA,123700,180.399000,N,06711.495000,W,2,10,0.6,791.6,M,-32.8,M,,*4D
$SDDBT,21.000000,f,6.400000,M,3.500000,F*1
$GPGGA,123701,180.365000,N,06711.582000,W,2,10,0.6,791.6,M,-32.8,M,,*48
$SDDBT,21.000000,f,6.400000,M,3.500000,F*1
$GPGGA,123702,180.326000,N,06711.685000,W,2,10,0.6,791.6,M,-32.8,M,,*48
$SDDBT,21.000000,f,6.400000,M,3.500000,F*1
$GPGGA,123703,180.291000,N,06711.783000,W,2,10,0.6,791.6,M,-32.8,M,,*43
$SDDBT,21.000000,f,6.400000,M,3.500000,F*1
$GPGGA,123704,180.291000,N,06711.807000,W,2,10,0.6,791.6,M,-32.8,M,,*47
$SDDBT,22.000000,f,6.710000,M,3.670000,F*4
$GPGGA,123705,180.326000,N,06711.709000,W,2,10,0.6,791.6,M,-32.8,M,,*4A
$SDDBT,22.000000,f,6.710000,M,3.670000,F*4
$GPGGA,123706,180.365000,N,06711.606000,W,2,10,0.6,791.6,M,-32.8,M,,*40
$SDDBT,21.000000,f,6.400000,M,3.500000,F*1
$GPGGA,123707,180.399000,N,06711.519000,W,2,10,0.6,791.6,M,-32.8,M,,*4F
$SDDBT,21.000000,f,6.400000,M,3.500000,F*1
$GPGGA,123708,180.448000,N,06711.395000,W,2,10,0.6,791.6,M,-32.8,M,,*49
$SDDBT,20.000000,f,6.100000,M,3.330000,F*
$GPGGA,123709,180.477000,N,06711.292000,W,2,10,0.6,791.6,M,-32.8,M,,*42
$SDDBT,20.000000,f,6.100000,M,3.330000,F*
$GPGGA,123710,180.517000,N,06711.189000,W,2,10,0.6,791.6,M,-32.8,M,,*44
$SDDBT,20.000000,f,6.100000,M,3.330000,F*
$GPGGA,123711,180.561000,N,06711.081000,W,2,10,0.6,791.6,M,-32.8,M,,*4D
$SDDBT,19.000000,f,5.790000,M,3.170000,F*
$GPGGA,123712,180.610000,N,06710.993000,W,2,10,0.6,791.6,M,-32.8,M,,*40
$SDDBT,18.000000,f,5.490000,M,3.000000,F*4
$GPGGA,123713,180.644000,N,06710.911000,W,2,10,0.6,791.6,M,-32.8,M,,*4A
$SDDBT,17.000000,f,5.180000,M,2.830000,F*5
$GPGGA,123714,180.664000,N,06710.860000,W,2,10,0.6,791.6,M,-32.8,M,,*48
$SDDBT,16.000000,f,4.880000,M,2.670000,F*6
$GPGGA,123715,180.708000,N,06710.808000,W,2,10,0.6,791.6,M,-32.8,M,,*4C
$SDDBT,15.000000,f,4.570000,M,2.500000,F*3
$GPGGA,123716,180.757000,N,06710.777000,W,2,10,0.6,791.6,M,-32.8,M,,*42
$SDDBT,15.000000,f,4.570000,M,2.500000,F*3
$GPGGA,123717,180.825000,N,06710.721000,W,2,10,0.6,791.6,M,-32.8,M,,*4A
$SDDBT,14.000000,f,4.270000,M,2.330000,F*
$GPGGA,123718,180.869000,N,06710.700000,W,2,10,0.6,791.6,M,-32.8,M,,*4E
$SDDBT,14.000000,f,4.270000,M,2.330000,F*
$GPGGA,123719,180.923000,N,06710.669000,W,2,10,0.6,791.6,M,-32.8,M,,*4E
$SDDBT,14.000000,f,4.270000,M,2.330000,F*
$GPGGA,123720,180.982000,N,06710.648000,W,2,10,0.6,791.6,M,-32.8,M,,*4C
$SDDBT,14.000000,f,4.270000,M,2.330000,F*
$GPGGA,123721,181.046000,N,06710.638000,W,2,10,0.6,791.6,M,-32.8,M,,*4A
$SDDBT,14.000000,f,4.270000,M,2.330000,F*
$GPGGA,123722,181.114000,N,06710.638000,W,2,10,0.6,791.6,M,-32.8,M,,*4F
$SDDBT,13.000000,f,3.960000,M,2.170000,F*C
$GPGGA,123723,181.173000,N,06710.633000,W,2,10,0.6,791.6,M,-32.8,M,,*44
$SDDBT,13.000000,f,3.960000,M,2.170000,F*C
$GPGGA,123724,181.237000,N,06710.638000,W,2,10,0.6,791.6,M,-32.8,M,,*4B
$SDDBT,14.000000,f,4.270000,M,2.330000,F*
$GPGGA,123725,181.315000,N,06710.664000,W,2,10,0.6,791.6,M,-32.8,M,,*42
$SDDBT,14.000000,f,4.270000,M,2.330000,F*
$GPGGA,123726,181.364000,N,06710.705000,W,2,10,0.6,791.6,M,-32.8,M,,*41
$SDDBT,15.000000,f,4.570000,M,2.500000,F*3
$GPGGA,123727,181.423000,N,06710.741000,W,2,10,0.6,791.6,M,-32.8,M,,*44
$SDDBT,15.000000,f,4.570000,M,2.500000,F*3
$GPGGA,123728,181.457000,N,06710.803000,W,2,10,0.6,791.6,M,-32.8,M,,*41
$SDDBT,16.000000,f,4.880000,M,2.670000,F*6
$GPGGA,123729,181.486000,N,06710.860000,W,2,10,0.6,791.6,M,-32.8,M,,*49
$SDDBT,17.000000,f,5.180000,M,2.830000,F*5
$GPGGA,123730,181.525000,N,06710.937000,W,2,10,0.6,791.6,M,-32.8,M,,*4A
$SDDBT,17.000000,f,5.180000,M,2.830000,F*5
$GPGGA,123731,181.565000,N,06711.019000,W,2,10,0.6,791.6,M,-32.8,M,,*4B
$SDDBT,16.000000,f,4.880000,M,2.670000,F*6
$GPGGA,123732,181.589000,N,06711.091000,W,2,10,0.6,791.6,M,-32.8,M,,*4A
$SDDBT,13.000000,f,3.960000,M,2.170000,F*C
$GPGGA,123733,181.619000,N,06711.174000,W,2,10,0.6,791.6,M,-32.8,M,,*4B
$SDDBT,12.000000,f,3.660000,M,2.000000,F*4
$GPGGA,123734,181.643000,N,06711.236000,W,2,10,0.6,791.6,M,-32.8,M,,*46
$SDDBT,11.000000,f,3.350000,M,1.830000,F*9
$GPGGA,123735,181.668000,N,06711.297000,W,2,10,0.6,791.6,M,-32.8,M,,*45
$SDDBT,12.000000,f,3.660000,M,2.000000,F*4
$GPGGA,123736,181.702000,N,06711.359000,W,2,10,0.6,791.6,M,-32.8,M,,*48
$SDDBT,12.000000,f,3.660000,M,2.000000,F*4
$GPGGA,123737,181.721000,N,06711.421000,W,2,10,0.6,791.6,M,-32.8,M,,*40
$SDDBT,14.000000,f,4.270000,M,2.330000,F*
$GPGGA,123738,181.746000,N,06711.493000,W,2,10,0.6,791.6,M,-32.8,M,,*47
$SDDBT,17.000000,f,5.180000,M,2.830000,F*5
$GPGGA,123739,181.775000,N,06711.550000,W,2,10,0.6,791.6,M,-32.8,M,,*48
$SDDBT,16.000000,f,4.880000,M,2.670000,F*6
$GPGGA,123740,181.800000,N,06711.617000,W,2,10,0.6,791.6,M,-32.8,M,,*4B
$SDDBT,19.000000,f,5.790000,M,3.170000,F*
$GPGGA,123741,181.800000,N,06711.641000,W,2,10,0.6,791.6,M,-32.8,M,,*49
$SDDBT,20.000000,f,6.100000,M,3.330000,F*
$GPGGA,123742,181.775000,N,06711.574000,W,2,10,0.6,791.6,M,-32.8,M,,*42
$SDDBT,16.000000,f,4.880000,M,2.670000,F*6
$GPGGA,123743,181.746000,N,06711.517000,W,2,10,0.6,791.6,M,-32.8,M,,*46
$SDDBT,16.000000,f,4.880000,M,2.670000,F*6
$GPGGA,123744,181.721000,N,06711.445000,W,2,10,0.6,791.6,M,-32.8,M,,*46
$SDDBT,14.000000,f,4.270000,M,2.330000,F*
$GPGGA,123745,181.702000,N,06711.383000,W,2,10,0.6,791.6,M,-32.8,M,,*4B
$SDDBT,15.000000,f,4.570000,M,2.500000,F*3
$GPGGA,123746,181.668000,N,06711.321000,W,2,10,0.6,791.6,M,-32.8,M,,*4D
$SDDBT,13.000000,f,3.960000,M,2.170000,F*C
$GPGGA,123747,181.643000,N,06711.260000,W,2,10,0.6,791.6,M,-32.8,M,,*41
$SDDBT,13.000000,f,3.960000,M,2.170000,F*C
$GPGGA,123748,181.619000,N,06711.198000,W,2,10,0.6,791.6,M,-32.8,M,,*45
$SDDBT,11.000000,f,3.350000,M,1.830000,F*9
$GPGGA,123749,181.589000,N,06711.115000,W,2,10,0.6,791.6,M,-32.8,M,,*4B
$SDDBT,14.000000,f,4.270000,M,2.330000,F*
$GPGGA,123750,181.565000,N,06711.043000,W,2,10,0.6,791.6,M,-32.8,M,,*43
$SDDBT,16.000000,f,4.880000,M,2.670000,F*6
$GPGGA,123751,181.525000,N,06710.961000,W,2,10,0.6,791.6,M,-32.8,M,,*4E
$SDDBT,17.000000,f,5.180000,M,2.830000,F*5
$GPGGA,123752,181.486000,N,06710.884000,W,2,10,0.6,791.6,M,-32.8,M,,*4F
$SDDBT,17.000000,f,5.180000,M,2.830000,F*5
$GPGGA,123753,181.457000,N,06710.827000,W,2,10,0.6,791.6,M,-32.8,M,,*4B
$SDDBT,16.000000,f,4.880000,M,2.670000,F*6
$GPGGA,123754,181.423000,N,06710.765000,W,2,10,0.6,791.6,M,-32.8,M,,*46
$SDDBT,15.000000,f,4.570000,M,2.500000,F*3
$GPGGA,123755,181.364000,N,06710.729000,W,2,10,0.6,791.6,M,-32.8,M,,*4B
$SDDBT,15.000000,f,4.570000,M,2.500000,F*3
$GPGGA,123756,181.315000,N,06710.688000,W,2,10,0.6,791.6,M,-32.8,M,,*44
$SDDBT,14.000000,f,4.270000,M,2.330000,F*
$GPGGA,123757,181.237000,N,06710.662000,W,2,10,0.6,791.6,M,-32.8,M,,*40
$SDDBT,14.000000,f,4.270000,M,2.330000,F*
$GPGGA,123758,181.173000,N,06710.657000,W,2,10,0.6,791.6,M,-32.8,M,,*4A
$SDDBT,14.000000,f,4.270000,M,2.330000,F*
$GPGGA,123759,181.114000,N,06710.662000,W,2,10,0.6,791.6,M,-32.8,M,,*4C
$SDDBT,14.000000,f,4.270000,M,2.330000,F*
$GPGGA,123760,181.046000,N,06710.662000,W,2,10,0.6,791.6,M,-32.8,M,,*40
$SDDBT,14.000000,f,4.270000,M,2.330000,F*
$GPGGA,123761,180.982000,N,06710.672000,W,2,10,0.6,791.6,M,-32.8,M,,*40
$SDDBT,14.000000,f,4.270000,M,2.330000,F*
$GPGGA,123762,180.923000,N,06710.693000,W,2,10,0.6,791.6,M,-32.8,M,,*47
$SDDBT,14.000000,f,4.270000,M,2.330000,F*
$GPGGA,123763,180.869000,N,06710.724000,W,2,10,0.6,791.6,M,-32.8,M,,*44
$SDDBT,14.000000,f,4.270000,M,2.330000,F*
$GPGGA,123764,180.825000,N,06710.745000,W,2,10,0.6,791.6,M,-32.8,M,,*4C
$SDDBT,15.000000,f,4.570000,M,2.500000,F*3
$GPGGA,123765,180.757000,N,06710.801000,W,2,10,0.6,791.6,M,-32.8,M,,*48
$SDDBT,15.000000,f,4.570000,M,2.500000,F*3
$GPGGA,123766,180.708000,N,06710.832000,W,2,10,0.6,791.6,M,-32.8,M,,*41
$SDDBT,16.000000,f,4.880000,M,2.670000,F*6
$GPGGA,123767,180.664000,N,06710.884000,W,2,10,0.6,791.6,M,-32.8,M,,*46
$SDDBT,16.000000,f,4.880000,M,2.670000,F*6
$GPGGA,123768,180.644000,N,06710.935000,W,2,10,0.6,791.6,M,-32.8,M,,*40
$SDDBT,15.000000,f,4.570000,M,2.500000,F*3
$GPGGA,123769,180.610000,N,06711.017000,W,2,10,0.6,791.6,M,-32.8,M,,*48
$SDDBT,19.000000,f,5.790000,M,3.170000,F*
$GPGGA,123770,180.561000,N,06711.105000,W,2,10,0.6,791.6,M,-32.8,M,,*47
$SDDBT,19.000000,f,5.790000,M,3.170000,F*
$GPGGA,123771,180.517000,N,06711.213000,W,2,10,0.6,791.6,M,-32.8,M,,*43
$SDDBT,20.000000,f,6.100000,M,3.330000,F*
$GPGGA,123772,180.477000,N,06711.316000,W,2,10,0.6,791.6,M,-32.8,M,,*43
$SDDBT,21.000000,f,6.400000,M,3.500000,F*1
$GPGGA,123773,180.448000,N,06711.419000,W,2,10,0.6,791.6,M,-32.8,M,,*46
$SDDBT,21.000000,f,6.400000,M,3.500000,F*1
$GPGGA,123774,180.399000,N,06711.543000,W,2,10,0.6,791.6,M,-32.8,M,,*44
$SDDBT,21.000000,f,6.400000,M,3.500000,F*1
$GPGGA,123775,180.365000,N,06711.630000,W,2,10,0.6,791.6,M,-32.8,M,,*41
$SDDBT,22.000000,f,6.710000,M,3.670000,F*4
$GPGGA,123776,180.326000,N,06711.733000,W,2,10,0.6,791.6,M,-32.8,M,,*47
$SDDBT,22.000000,f,6.710000,M,3.670000,F*4
$GPGGA,123777,180.291000,N,06711.831000,W,2,10,0.6,791.6,M,-32.8,M,,*46
$SDDBT,22.000000,f,6.710000,M,3.670000,F*4
$GPGGA,123778,180.291000,N,06711.855000,W,2,10,0.6,791.6,M,-32.8,M,,*4B
$SDDBT,22.000000,f,6.710000,M,3.670000,F*4
$GPGGA,123779,180.326000,N,06711.757000,W,2,10,0.6,791.6,M,-32.8,M,,*4A
$SDDBT,22.000000,f,6.710000,M,3.670000,F*4
$GPGGA,123780,180.365000,N,06711.654000,W,2,10,0.6,791.6,M,-32.8,M,,*49
$SDDBT,23.000000,f,7.010000,M,3.830000,F*9
$GPGGA,123781,180.399000,N,06711.567000,W,2,10,0.6,791.6,M,-32.8,M,,*48
$SDDBT,21.000000,f,6.400000,M,3.500000,F*1
$GPGGA,123782,180.448000,N,06711.443000,W,2,10,0.6,791.6,M,-32.8,M,,*47
$SDDBT,22.000000,f,6.710000,M,3.670000,F*4
$GPGGA,123783,180.477000,N,06711.340000,W,2,10,0.6,791.6,M,-32.8,M,,*4E
$SDDBT,20.000000,f,6.100000,M,3.330000,F*
$GPGGA,123784,180.517000,N,06711.237000,W,2,10,0.6,791.6,M,-32.8,M,,*4F
$SDDBT,21.000000,f,6.400000,M,3.500000,F*1
$GPGGA,123785,180.561000,N,06711.129000,W,2,10,0.6,791.6,M,-32.8,M,,*43
$SDDBT,20.000000,f,6.100000,M,3.330000,F*
$GPGGA,123786,180.610000,N,06711.041000,W,2,10,0.6,791.6,M,-32.8,M,,*4A
$SDDBT,19.000000,f,5.790000,M,3.170000,F*
$GPGGA,123787,180.644000,N,06710.959000,W,2,10,0.6,791.6,M,-32.8,M,,*4B
$SDDBT,16.000000,f,4.880000,M,2.670000,F*6
$GPGGA,123788,180.664000,N,06710.908000,W,2,10,0.6,791.6,M,-32.8,M,,*42
$SDDBT,17.000000,f,5.180000,M,2.830000,F*5
$GPGGA,123789,180.708000,N,06710.856000,W,2,10,0.6,791.6,M,-32.8,M,,*42
$SDDBT,16.000000,f,4.880000,M,2.670000,F*6
$GPGGA,123790,180.757000,N,06710.825000,W,2,10,0.6,791.6,M,-32.8,M,,*44
$SDDBT,16.000000,f,4.880000,M,2.670000,F*6
$GPGGA,123791,180.825000,N,06710.769000,W,2,10,0.6,791.6,M,-32.8,M,,*48
$SDDBT,16.000000,f,4.880000,M,2.670000,F*6
$GPGGA,123792,180.869000,N,06710.748000,W,2,10,0.6,791.6,M,-32.8,M,,*40
$SDDBT,15.000000,f,4.570000,M,2.500000,F*3
$GPGGA,123793,180.923000,N,06710.717000,W,2,10,0.6,791.6,M,-32.8,M,,*44
$SDDBT,14.000000,f,4.270000,M,2.330000,F*
$GPGGA,123794,180.982000,N,06710.696000,W,2,10,0.6,791.6,M,-32.8,M,,*40
$SDDBT,14.000000,f,4.270000,M,2.330000,F*
$GPGGA,123795,181.046000,N,06710.686000,W,2,10,0.6,791.6,M,-32.8,M,,*40
$SDDBT,14.000000,f,4.270000,M,2.330000,F*
$GPGGA,123796,181.114000,N,06710.686000,W,2,10,0.6,791.6,M,-32.8,M,,*45
$SDDBT,14.000000,f,4.270000,M,2.330000,F*
$GPGGA,123797,181.173000,N,06710.681000,W,2,10,0.6,791.6,M,-32.8,M,,*42
$SDDBT,14.000000,f,4.270000,M,2.330000,F*
$GPGGA,123798,181.237000,N,06710.686000,W,2,10,0.6,791.6,M,-32.8,M,,*49
$SDDBT,14.000000,f,4.270000,M,2.330000,F*
$GPGGA,123799,181.315000,N,06710.712000,W,2,10,0.6,791.6,M,-32.8,M,,*45
$SDDBT,14.000000,f,4.270000,M,2.330000,F*
$GPGGA,123800,181.364000,N,06710.753000,W,2,10,0.6,791.6,M,-32.8,M,,*49
$SDDBT,15.000000,f,4.570000,M,2.500000,F*3
$GPGGA,123801,181.423000,N,06710.789000,W,2,10,0.6,791.6,M,-32.8,M,,*4B
$SDDBT,16.000000,f,4.880000,M,2.670000,F*6
$GPGGA,123802,181.457000,N,06710.851000,W,2,10,0.6,791.6,M,-32.8,M,,*41
$SDDBT,16.000000,f,4.880000,M,2.670000,F*6
$GPGGA,123803,181.486000,N,06710.908000,W,2,10,0.6,791.6,M,-32.8,M,,*41
$SDDBT,17.000000,f,5.180000,M,2.830000,F*5
$GPGGA,123804,181.525000,N,06710.985000,W,2,10,0.6,791.6,M,-32.8,M,,*4B
$SDDBT,18.000000,f,5.490000,M,3.000000,F*4
$GPGGA,123805,181.565000,N,06711.067000,W,2,10,0.6,791.6,M,-32.8,M,,*4A
$SDDBT,16.000000,f,4.880000,M,2.670000,F*6
$GPGGA,123806,181.589000,N,06711.139000,W,2,10,0.6,791.6,M,-32.8,M,,*41
$SDDBT,16.000000,f,4.880000,M,2.670000,F*6
$GPGGA,123807,181.619000,N,06711.222000,W,2,10,0.6,791.6,M,-32.8,M,,*43
$SDDBT,13.000000,f,3.960000,M,2.170000,F*C
$GPGGA,123808,181.643000,N,06711.284000,W,2,10,0.6,791.6,M,-32.8,M,,*4F
$SDDBT,14.000000,f,4.270000,M,2.330000,F*
$GPGGA,123809,181.668000,N,06711.345000,W,2,10,0.6,791.6,M,-32.8,M,,*4B
$SDDBT,15.000000,f,4.570000,M,2.500000,F*3
$GPGGA,123810,181.702000,N,06711.407000,W,2,10,0.6,791.6,M,-32.8,M,,*4F
$SDDBT,15.000000,f,4.570000,M,2.500000,F*3
$GPGGA,123811,181.721000,N,06711.469000,W,2,10,0.6,791.6,M,-32.8,M,,*47
$SDDBT,16.000000,f,4.880000,M,2.670000,F*6
$GPGGA,123812,181.746000,N,06711.541000,W,2,10,0.6,791.6,M,-32.8,M,,*4E
$SDDBT,16.000000,f,4.880000,M,2.670000,F*6
$GPGGA,123813,181.775000,N,06711.598000,W,2,10,0.6,791.6,M,-32.8,M,,*4B
$SDDBT,18.000000,f,5.490000,M,3.000000,F*4
$GPGGA,123814,181.800000,N,06711.665000,W,2,10,0.6,791.6,M,-32.8,M,,*40
$SDDBT,20.000000,f,6.100000,M,3.330000,F*
$GPGGA,123815,181.800000,N,06711.689000,W,2,10,0.6,791.6,M,-32.8,M,,*43
$SDDBT,20.000000,f,6.100000,M,3.330000,F*
$GPGGA,123816,181.775000,N,06711.622000,W,2,10,0.6,791.6,M,-32.8,M,,*4C
$SDDBT,20.000000,f,6.100000,M,3.330000,F*
$GPGGA,123817,181.746000,N,06711.565000,W,2,10,0.6,791.6,M,-32.8,M,,*4D
$SDDBT,16.000000,f,4.880000,M,2.670000,F*6
$GPGGA,123818,181.721000,N,06711.493000,W,2,10,0.6,791.6,M,-32.8,M,,*4B
$SDDBT,17.000000,f,5.180000,M,2.830000,F*5
$GPGGA,123819,181.702000,N,06711.431000,W,2,10,0.6,791.6,M,-32.8,M,,*43
$SDDBT,15.000000,f,4.570000,M,2.500000,F*3
$GPGGA,123820,181.668000,N,06711.369000,W,2,10,0.6,791.6,M,-32.8,M,,*4E
$SDDBT,16.000000,f,4.880000,M,2.670000,F*6
$GPGGA,123821,181.643000,N,06711.308000,W,2,10,0.6,791.6,M,-32.8,M,,*41
$SDDBT,16.000000,f,4.880000,M,2.670000,F*6
$GPGGA,123822,181.619000,N,06711.246000,W,2,10,0.6,791.6,M,-32.8,M,,*46
$SDDBT,14.000000,f,4.270000,M,2.330000,F*
$GPGGA,123823,181.589000,N,06711.163000,W,2,10,0.6,791.6,M,-32.8,M,,*49
$SDDBT,16.000000,f,4.880000,M,2.670000,F*6
$GPGGA,123824,181.565000,N,06711.091000,W,2,10,0.6,791.6,M,-32.8,M,,*40
$SDDBT,17.000000,f,5.180000,M,2.830000,F*5
$GPGGA,123825,181.525000,N,06711.009000,W,2,10,0.6,791.6,M,-32.8,M,,*44
$SDDBT,18.000000,f,5.490000,M,3.000000,F*4
$GPGGA,123826,181.486000,N,06710.932000,W,2,10,0.6,791.6,M,-32.8,M,,*4F
$SDDBT,17.000000,f,5.180000,M,2.830000,F*5
$GPGGA,123827,181.457000,N,06710.875000,W,2,10,0.6,791.6,M,-32.8,M,,*40
$SDDBT,16.000000,f,4.880000,M,2.670000,F*6
$GPGGA,123828,181.423000,N,06710.813000,W,2,10,0.6,791.6,M,-32.8,M,,*4C
$SDDBT,16.000000,f,4.880000,M,2.670000,F*6
$GPGGA,123829,181.364000,N,06710.777000,W,2,10,0.6,791.6,M,-32.8,M,,*44
$SDDBT,16.000000,f,4.880000,M,2.670000,F*6
$GPGGA,123830,181.315000,N,06710.736000,W,2,10,0.6,791.6,M,-32.8,M,,*4F
$SDDBT,15.000000,f,4.570000,M,2.500000,F*3
$GPGGA,123831,181.237000,N,06710.710000,W,2,10,0.6,791.6,M,-32.8,M,,*4B
$SDDBT,15.000000,f,4.570000,M,2.500000,F*3
$GPGGA,123832,181.173000,N,06710.705000,W,2,10,0.6,791.6,M,-32.8,M,,*4F
$SDDBT,14.000000,f,4.270000,M,2.330000,F*
$GPGGA,123833,181.114000,N,06710.710000,W,2,10,0.6,791.6,M,-32.8,M,,*4B
$SDDBT,14.000000,f,4.270000,M,2.330000,F*
$GPGGA,123834,181.046000,N,06710.710000,W,2,10,0.6,791.6,M,-32.8,M,,*4A
$SDDBT,14.000000,f,4.270000,M,2.330000,F*
$GPGGA,123835,180.982000,N,06710.720000,W,2,10,0.6,791.6,M,-32.8,M,,*48
$SDDBT,15.000000,f,4.570000,M,2.500000,F*3
$GPGGA,123836,180.923000,N,06710.741000,W,2,10,0.6,791.6,M,-32.8,M,,*47
$SDDBT,15.000000,f,4.570000,M,2.500000,F*3
$GPGGA,123837,180.869000,N,06710.772000,W,2,10,0.6,791.6,M,-32.8,M,,*49
$SDDBT,15.000000,f,4.570000,M,2.500000,F*3
$GPGGA,123838,180.825000,N,06710.793000,W,2,10,0.6,791.6,M,-32.8,M,,*41
$SDDBT,16.000000,f,4.880000,M,2.670000,F*6
$GPGGA,123839,180.757000,N,06710.849000,W,2,10,0.6,791.6,M,-32.8,M,,*42
$SDDBT,16.000000,f,4.880000,M,2.670000,F*6
$GPGGA,123840,180.708000,N,06710.880000,W,2,10,0.6,791.6,M,-32.8,M,,*43
$SDDBT,16.000000,f,4.880000,M,2.670000,F*6
$GPGGA,123841,180.664000,N,06710.932000,W,2,10,0.6,791.6,M,-32.8,M,,*41
$SDDBT,17.000000,f,5.180000,M,2.830000,F*5
$GPGGA,123842,180.644000,N,06710.983000,W,2,10,0.6,791.6,M,-32.8,M,,*4A
$SDDBT,18.000000,f,5.490000,M,3.000000,F*4
$GPGGA,123843,180.610000,N,06711.065000,W,2,10,0.6,791.6,M,-32.8,M,,*4A
$SDDBT,19.000000,f,5.790000,M,3.170000,F*
$GPGGA,123844,180.561000,N,06711.153000,W,2,10,0.6,791.6,M,-32.8,M,,*4C
$SDDBT,21.000000,f,6.400000,M,3.500000,F*1
$GPGGA,123845,180.517000,N,06711.261000,W,2,10,0.6,791.6,M,-32.8,M,,*4E
$SDDBT,20.000000,f,6.100000,M,3.330000,F*
$GPGGA,123846,180.477000,N,06711.364000,W,2,10,0.6,791.6,M,-32.8,M,,*4E
$SDDBT,21.000000,f,6.400000,M,3.500000,F*1
$GPGGA,123847,180.448000,N,06711.467000,W,2,10,0.6,791.6,M,-32.8,M,,*47
$SDDBT,22.000000,f,6.710000,M,3.670000,F*4
$GPGGA,123848,180.399000,N,06711.591000,W,2,10,0.6,791.6,M,-32.8,M,,*4B
$SDDBT,22.000000,f,6.710000,M,3.670000,F*4
$GPGGA,123849,180.365000,N,06711.678000,W,2,10,0.6,791.6,M,-32.8,M,,*4D
$SDDBT,22.000000,f,6.710000,M,3.670000,F*4
$GPGGA,123850,180.326000,N,06711.781000,W,2,10,0.6,791.6,M,-32.8,M,,*45
$SDDBT,22.000000,f,6.710000,M,3.670000,F*4
$GPGGA,123851,180.291000,N,06711.879000,W,2,10,0.6,791.6,M,-32.8,M,,*41
$SDDBT,22.000000,f,6.710000,M,3.670000,F*4
$GPGGA,123852,180.291000,N,06711.903000,W,2,10,0.6,791.6,M,-32.8,M,,*4E
$SDDBT,22.000000,f,6.710000,M,3.670000,F*4
$GPGGA,123853,180.326000,N,06711.805000,W,2,10,0.6,791.6,M,-32.8,M,,*45
$SDDBT,22.000000,f,6.710000,M,3.670000,F*4
$GPGGA,123854,180.365000,N,06711.702000,W,2,10,0.6,791.6,M,-32.8,M,,*4D
$SDDBT,22.000000,f,6.710000,M,3.670000,F*4
$GPGGA,123855,180.399000,N,06711.615000,W,2,10,0.6,791.6,M,-32.8,M,,*48
$SDDBT,23.000000,f,7.010000,M,3.830000,F*9
$GPGGA,123856,180.448000,N,06711.491000,W,2,10,0.6,791.6,M,-32.8,M,,*4E
$SDDBT,22.000000,f,6.710000,M,3.670000,F*4
$GPGGA,123857,180.477000,N,06711.388000,W,2,10,0.6,791.6,M,-32.8,M,,*4C
$SDDBT,22.000000,f,6.710000,M,3.670000,F*4
$GPGGA,123858,180.517000,N,06711.285000,W,2,10,0.6,791.6,M,-32.8,M,,*48
$SDDBT,21.000000,f,6.400000,M,3.500000,F*1
$GPGGA,123859,180.561000,N,06711.177000,W,2,10,0.6,791.6,M,-32.8,M,,*46
$SDDBT,21.000000,f,6.400000,M,3.500000,F*1
$GPGGA,123860,180.610000,N,06711.089000,W,2,10,0.6,791.6,M,-32.8,M,,*49
$SDDBT,20.000000,f,6.100000,M,3.330000,F*
$GPGGA,123861,180.644000,N,06711.007000,W,2,10,0.6,791.6,M,-32.8,M,,*4F
$SDDBT,18.000000,f,5.490000,M,3.000000,F*4
$GPGGA,123862,180.664000,N,06710.956000,W,2,10,0.6,791.6,M,-32.8,M,,*42
$SDDBT,18.000000,f,5.490000,M,3.000000,F*4
$GPGGA,123863,180.708000,N,06710.904000,W,2,10,0.6,791.6,M,-32.8,M,,*4F
$SDDBT,16.000000,f,4.880000,M,2.670000,F*6
$GPGGA,123864,180.757000,N,06710.873000,W,2,10,0.6,791.6,M,-32.8,M,,*43
$SDDBT,16.000000,f,4.880000,M,2.670000,F*6
$GPGGA,123865,180.825000,N,06710.817000,W,2,10,0.6,791.6,M,-32.8,M,,*4A
$SDDBT,16.000000,f,4.880000,M,2.670000,F*6
$GPGGA,123866,180.869000,N,06710.796000,W,2,10,0.6,791.6,M,-32.8,M,,*47
$SDDBT,16.000000,f,4.880000,M,2.670000,F*6
$GPGGA,123867,180.923000,N,06710.765000,W,2,10,0.6,791.6,M,-32.8,M,,*45
$SDDBT,16.000000,f,4.880000,M,2.670000,F*6
$GPGGA,123868,180.982000,N,06710.744000,W,2,10,0.6,791.6,M,-32.8,M,,*42
$SDDBT,16.000000,f,4.880000,M,2.670000,F*6
$GPGGA,123869,181.046000,N,06710.734000,W,2,10,0.6,791.6,M,-32.8,M,,*44
$SDDBT,15.000000,f,4.570000,M,2.500000,F*3
$GPGGA,123870,181.114000,N,06710.734000,W,2,10,0.6,791.6,M,-32.8,M,,*4A
$SDDBT,16.000000,f,4.880000,M,2.670000,F*6
$GPGGA,123871,181.173000,N,06710.729000,W,2,10,0.6,791.6,M,-32.8,M,,*46
$SDDBT,15.000000,f,4.570000,M,2.500000,F*3
$GPGGA,123872,181.237000,N,06710.734000,W,2,10,0.6,791.6,M,-32.8,M,,*4A
$SDDBT,15.000000,f,4.570000,M,2.500000,F*3
$GPGGA,123873,181.315000,N,06710.760000,W,2,10,0.6,791.6,M,-32.8,M,,*4B
$SDDBT,16.000000,f,4.880000,M,2.670000,F*6
$GPGGA,123874,181.364000,N,06710.801000,W,2,10,0.6,791.6,M,-32.8,M,,*42
$SDDBT,16.000000,f,4.880000,M,2.670000,F*6
$GPGGA,123875,181.423000,N,06710.837000,W,2,10,0.6,791.6,M,-32.8,M,,*42
$SDDBT,16.000000,f,4.880000,M,2.670000,F*6
$GPGGA,123876,181.457000,N,06710.899000,W,2,10,0.6,791.6,M,-32.8,M,,*46
$SDDBT,16.000000,f,4.880000,M,2.670000,F*6
$GPGGA,123877,181.486000,N,06710.956000,W,2,10,0.6,791.6,M,-32.8,M,,*49
$SDDBT,17.000000,f,5.180000,M,2.830000,F*5
$GPGGA,123878,181.525000,N,06711.033000,W,2,10,0.6,791.6,M,-32.8,M,,*45
$SDDBT,19.000000,f,5.790000,M,3.170000,F*
$GPGGA,123879,181.565000,N,06711.115000,W,2,10,0.6,791.6,M,-32.8,M,,*45
$SDDBT,19.000000,f,5.790000,M,3.170000,F*
$GPGGA,123880,181.589000,N,06711.187000,W,2,10,0.6,791.6,M,-32.8,M,,*4A
$SDDBT,16.000000,f,4.880000,M,2.670000,F*6
$GPGGA,123881,181.619000,N,06711.270000,W,2,10,0.6,791.6,M,-32.8,M,,*4A
$SDDBT,14.000000,f,4.270000,M,2.330000,F*
$GPGGA,123882,181.643000,N,06711.332000,W,2,10,0.6,791.6,M,-32.8,M,,*41
$SDDBT,17.000000,f,5.180000,M,2.830000,F*5
$GPGGA,123883,181.668000,N,06711.393000,W,2,10,0.6,791.6,M,-32.8,M,,*42
$SDDBT,15.000000,f,4.570000,M,2.500000,F*3
$GPGGA,123884,181.702000,N,06711.455000,W,2,10,0.6,791.6,M,-32.8,M,,*45
$SDDBT,15.000000,f,4.570000,M,2.500000,F*3
$GPGGA,123885,181.721000,N,06711.517000,W,2,10,0.6,791.6,M,-32.8,M,,*42
$SDDBT,17.000000,f,5.180000,M,2.830000,F*5
$GPGGA,123886,181.746000,N,06711.589000,W,2,10,0.6,791.6,M,-32.8,M,,*47
$SDDBT,16.000000,f,4.880000,M,2.670000,F*6
$GPGGA,123887,181.775000,N,06711.646000,W,2,10,0.6,791.6,M,-32.8,M,,*46
$SDDBT,20.000000,f,6.100000,M,3.330000,F*
$GPGGA,123888,181.800000,N,06711.713000,W,2,10,0.6,791.6,M,-32.8,M,,*45
$SDDBT,22.000000,f,6.710000,M,3.670000,F*4
$GPGGA,123889,181.800000,N,06711.737000,W,2,10,0.6,791.6,M,-32.8,M,,*42
$SDDBT,24.000000,f,7.320000,M,4.000000,F*2
$GPGGA,123890,181.775000,N,06711.670000,W,2,10,0.6,791.6,M,-32.8,M,,*45
$SDDBT,21.000000,f,6.400000,M,3.500000,F*1
$GPGGA,123891,181.746000,N,06711.613000,W,2,10,0.6,791.6,M,-32.8,M,,*41
$SDDBT,18.000000,f,5.490000,M,3.000000,F*4
$GPGGA,123892,181.721000,N,06711.541000,W,2,10,0.6,791.6,M,-32.8,M,,*47
$SDDBT,17.000000,f,5.180000,M,2.830000,F*5
$GPGGA,123893,181.702000,N,06711.479000,W,2,10,0.6,791.6,M,-32.8,M,,*4D
$SDDBT,16.000000,f,4.880000,M,2.670000,F*6
$GPGGA,123894,181.668000,N,06711.417000,W,2,10,0.6,791.6,M,-32.8,M,,*4F
$SDDBT,15.000000,f,4.570000,M,2.500000,F*3
$GPGGA,123895,181.643000,N,06711.356000,W,2,10,0.6,791.6,M,-32.8,M,,*45
$SDDBT,17.000000,f,5.180000,M,2.830000,F*5
$GPGGA,123896,181.619000,N,06711.294000,W,2,10,0.6,791.6,M,-32.8,M,,*46
$SDDBT,17.000000,f,5.180000,M,2.830000,F*5
$GPGGA,123897,181.589000,N,06711.211000,W,2,10,0.6,791.6,M,-32.8,M,,*40
$SDDBT,15.000000,f,4.570000,M,2.500000,F*3
$GPGGA,123898,181.565000,N,06711.139000,W,2,10,0.6,791.6,M,-32.8,M,,*44
$SDDBT,20.000000,f,6.100000,M,3.330000,F*
$GPGGA,123899,181.525000,N,06711.057000,W,2,10,0.6,791.6,M,-32.8,M,,*48
$SDDBT,19.000000,f,5.790000,M,3.170000,F*
$GPGGA,123900,181.486000,N,06710.980000,W,2,10,0.6,791.6,M,-32.8,M,,*43
$SDDBT,18.000000,f,5.490000,M,3.000000,F*4
$GPGGA,123901,181.457000,N,06710.923000,W,2,10,0.6,791.6,M,-32.8,M,,*47
$SDDBT,17.000000,f,5.180000,M,2.830000,F*5
$GPGGA,123902,181.423000,N,06710.861000,W,2,10,0.6,791.6,M,-32.8,M,,*40
$SDDBT,17.000000,f,5.180000,M,2.830000,F*5
$GPGGA,123903,181.364000,N,06710.825000,W,2,10,0.6,791.6,M,-32.8,M,,*45
$SDDBT,17.000000,f,5.180000,M,2.830000,F*5
$GPGGA,123904,181.315000,N,06710.784000,W,2,10,0.6,791.6,M,-32.8,M,,*40
$SDDBT,17.000000,f,5.180000,M,2.830000,F*5
$GPGGA,123905,181.237000,N,06710.758000,W,2,10,0.6,791.6,M,-32.8,M,,*41
$SDDBT,16.000000,f,4.880000,M,2.670000,F*6
$GPGGA,123906,181.173000,N,06710.753000,W,2,10,0.6,791.6,M,-32.8,M,,*4A
$SDDBT,16.000000,f,4.880000,M,2.670000,F*6
$GPGGA,123907,181.114000,N,06710.758000,W,2,10,0.6,791.6,M,-32.8,M,,*41
$SDDBT,17.000000,f,5.180000,M,2.830000,F*5
$GPGGA,123908,181.046000,N,06710.758000,W,2,10,0.6,791.6,M,-32.8,M,,*48
$SDDBT,16.000000,f,4.880000,M,2.670000,F*6
$GPGGA,123909,180.982000,N,06710.768000,W,2,10,0.6,791.6,M,-32.8,M,,*4A
$SDDBT,17.000000,f,5.180000,M,2.830000,F*5
$GPGGA,123910,180.923000,N,06710.789000,W,2,10,0.6,791.6,M,-32.8,M,,*46
$SDDBT,16.000000,f,4.880000,M,2.670000,F*6
$GPGGA,123911,180.869000,N,06710.820000,W,2,10,0.6,791.6,M,-32.8,M,,*44
$SDDBT,17.000000,f,5.180000,M,2.830000,F*5
$GPGGA,123912,180.825000,N,06710.841000,W,2,10,0.6,791.6,M,-32.8,M,,*48
$SDDBT,16.000000,f,4.880000,M,2.670000,F*6
$GPGGA,123913,180.757000,N,06710.897000,W,2,10,0.6,791.6,M,-32.8,M,,*48
$SDDBT,17.000000,f,5.180000,M,2.830000,F*5
$GPGGA,123914,180.708000,N,06710.928000,W,2,10,0.6,791.6,M,-32.8,M,,*40
$SDDBT,18.000000,f,5.490000,M,3.000000,F*4
$GPGGA,123915,180.664000,N,06710.980000,W,2,10,0.6,791.6,M,-32.8,M,,*48
$SDDBT,19.000000,f,5.790000,M,3.170000,F*
$GPGGA,123916,180.644000,N,06711.031000,W,2,10,0.6,791.6,M,-32.8,M,,*4B
$SDDBT,19.000000,f,5.790000,M,3.170000,F*
$GPGGA,123917,180.610000,N,06711.113000,W,2,10,0.6,791.6,M,-32.8,M,,*4A
$SDDBT,20.000000,f,6.100000,M,3.330000,F*
$GPGGA,123918,180.561000,N,06711.201000,W,2,10,0.6,791.6,M,-32.8,M,,*40
$SDDBT,20.000000,f,6.100000,M,3.330000,F*
$GPGGA,123919,180.517000,N,06711.309000,W,2,10,0.6,791.6,M,-32.8,M,,*49
$SDDBT,21.000000,f,6.400000,M,3.500000,F*1
$GPGGA,123920,180.477000,N,06711.412000,W,2,10,0.6,791.6,M,-32.8,M,,*49
$SDDBT,22.000000,f,6.710000,M,3.670000,F*4
$GPGGA,123921,180.448000,N,06711.515000,W,2,10,0.6,791.6,M,-32.8,M,,*42
$SDDBT,23.000000,f,7.010000,M,3.830000,F*9
$GPGGA,123922,180.399000,N,06711.639000,W,2,10,0.6,791.6,M,-32.8,M,,*47
$SDDBT,22.000000,f,6.710000,M,3.670000,F*4
$GPGGA,123923,180.365000,N,06711.726000,W,2,10,0.6,791.6,M,-32.8,M,,*4A
$SDDBT,22.000000,f,6.710000,M,3.670000,F*4
$GPGGA,123924,180.326000,N,06711.829000,W,2,10,0.6,791.6,M,-32.8,M,,*4A
$SDDBT,22.000000,f,6.710000,M,3.670000,F*4
$GPGGA,123925,180.291000,N,06711.927000,W,2,10,0.6,791.6,M,-32.8,M,,*49
$SDDBT,22.000000,f,6.710000,M,3.670000,F*4
$GPGGA,123926,180.291000,N,06711.951000,W,2,10,0.6,791.6,M,-32.8,M,,*4B
$SDDBT,22.000000,f,6.710000,M,3.670000,F*4
$GPGGA,123927,180.326000,N,06711.853000,W,2,10,0.6,791.6,M,-32.8,M,,*44
$SDDBT,23.000000,f,7.010000,M,3.830000,F*9
$GPGGA,123928,180.365000,N,06711.750000,W,2,10,0.6,791.6,M,-32.8,M,,*40
$SDDBT,21.000000,f,6.400000,M,3.500000,F*1
$GPGGA,123929,180.399000,N,06711.663000,W,2,10,0.6,791.6,M,-32.8,M,,*43
$SDDBT,23.000000,f,7.010000,M,3.830000,F*9
$GPGGA,123930,180.448000,N,06711.539000,W,2,10,0.6,791.6,M,-32.8,M,,*4C
$SDDBT,23.000000,f,7.010000,M,3.830000,F*9
$GPGGA,123931,180.477000,N,06711.436000,W,2,10,0.6,791.6,M,-32.8,M,,*4F
$SDDBT,23.000000,f,7.010000,M,3.830000,F*9
$GPGGA,123932,180.517000,N,06711.333000,W,2,10,0.6,791.6,M,-32.8,M,,*49
$SDDBT,21.000000,f,6.400000,M,3.500000,F*1
$GPGGA,123933,180.561000,N,06711.225000,W,2,10,0.6,791.6,M,-32.8,M,,*4F
$SDDBT,21.000000,f,6.400000,M,3.500000,F*1
$GPGGA,123934,180.610000,N,06711.137000,W,2,10,0.6,791.6,M,-32.8,M,,*4D
$SDDBT,21.000000,f,6.400000,M,3.500000,F*1
$GPGGA,123935,180.644000,N,06711.055000,W,2,10,0.6,791.6,M,-32.8,M,,*48
$SDDBT,19.000000,f,5.790000,M,3.170000,F*
$GPGGA,123936,180.664000,N,06711.004000,W,2,10,0.6,791.6,M,-32.8,M,,*4D
$SDDBT,18.000000,f,5.490000,M,3.000000,F*4
$GPGGA,123937,180.708000,N,06710.952000,W,2,10,0.6,791.6,M,-32.8,M,,*4C
$SDDBT,18.000000,f,5.490000,M,3.000000,F*4
$GPGGA,123938,180.757000,N,06710.921000,W,2,10,0.6,791.6,M,-32.8,M,,*4D
$SDDBT,19.000000,f,5.790000,M,3.170000,F*
$GPGGA,123939,180.825000,N,06710.865000,W,2,10,0.6,791.6,M,-32.8,M,,*47
$SDDBT,16.000000,f,4.880000,M,2.670000,F*6
$GPGGA,123940,180.869000,N,06710.844000,W,2,10,0.6,791.6,M,-32.8,M,,*42
$SDDBT,17.000000,f,5.180000,M,2.830000,F*5
$GPGGA,123941,180.923000,N,06710.813000,W,2,10,0.6,791.6,M,-32.8,M,,*4E
$SDDBT,17.000000,f,5.180000,M,2.830000,F*5
$GPGGA,123942,180.982000,N,06710.792000,W,2,10,0.6,791.6,M,-32.8,M,,*40
$SDDBT,17.000000,f,5.180000,M,2.830000,F*5
$GPGGA,123943,181.046000,N,06710.782000,W,2,10,0.6,791.6,M,-32.8,M,,*40
$SDDBT,17.000000,f,5.180000,M,2.830000,F*5
$GPGGA,123944,181.114000,N,06710.782000,W,2,10,0.6,791.6,M,-32.8,M,,*41
$SDDBT,17.000000,f,5.180000,M,2.830000,F*5
$GPGGA,123945,181.173000,N,06710.777000,W,2,10,0.6,791.6,M,-32.8,M,,*4B
$SDDBT,17.000000,f,5.180000,M,2.830000,F*5
$GPGGA,123946,181.237000,N,06710.782000,W,2,10,0.6,791.6,M,-32.8,M,,*41
$SDDBT,16.000000,f,4.880000,M,2.670000,F*6
$GPGGA,123947,181.315000,N,06710.808000,W,2,10,0.6,791.6,M,-32.8,M,,*4C
$SDDBT,17.000000,f,5.180000,M,2.830000,F*5
$GPGGA,123948,181.364000,N,06710.849000,W,2,10,0.6,791.6,M,-32.8,M,,*40
$SDDBT,17.000000,f,5.180000,M,2.830000,F*5
$GPGGA,123949,181.423000,N,06710.885000,W,2,10,0.6,791.6,M,-32.8,M,,*45
$SDDBT,18.000000,f,5.490000,M,3.000000,F*4
$GPGGA,123950,181.457000,N,06710.947000,W,2,10,0.6,791.6,M,-32.8,M,,*41
$SDDBT,18.000000,f,5.490000,M,3.000000,F*4
$GPGGA,123951,181.486000,N,06711.004000,W,2,10,0.6,791.6,M,-32.8,M,,*43
$SDDBT,18.000000,f,5.490000,M,3.000000,F*4
$GPGGA,123952,181.525000,N,06711.081000,W,2,10,0.6,791.6,M,-32.8,M,,*45
$SDDBT,20.000000,f,6.100000,M,3.330000,F*
$GPGGA,123953,181.565000,N,06711.163000,W,2,10,0.6,791.6,M,-32.8,M,,*4D
$SDDBT,19.000000,f,5.790000,M,3.170000,F*
$GPGGA,123954,181.589000,N,06711.235000,W,2,10,0.6,791.6,M,-32.8,M,,*48
$SDDBT,14.000000,f,4.270000,M,2.330000,F*
$GPGGA,123955,181.619000,N,06711.318000,W,2,10,0.6,791.6,M,-32.8,M,,*4D
$SDDBT,21.000000,f,6.400000,M,3.500000,F*1
$GPGGA,123956,181.643000,N,06711.380000,W,2,10,0.6,791.6,M,-32.8,M,,*40
$SDDBT,16.000000,f,4.880000,M,2.670000,F*6
$GPGGA,123957,181.668000,N,06711.441000,W,2,10,0.6,791.6,M,-32.8,M,,*42
$SDDBT,16.000000,f,4.880000,M,2.670000,F*6
$GPGGA,123958,181.702000,N,06711.503000,W,2,10,0.6,791.6,M,-32.8,M,,*47
$SDDBT,17.000000,f,5.180000,M,2.830000,F*5
$GPGGA,123959,181.721000,N,06711.565000,W,2,10,0.6,791.6,M,-32.8,M,,*47
$SDDBT,18.000000,f,5.490000,M,3.000000,F*4
$GPGGA,123960,181.746000,N,06711.637000,W,2,10,0.6,791.6,M,-32.8,M,,*48
$SDDBT,22.000000,f,6.710000,M,3.670000,F*4
$GPGGA,123961,181.775000,N,06711.694000,W,2,10,0.6,791.6,M,-32.8,M,,*40
$SDDBT,22.000000,f,6.710000,M,3.670000,F*4
$GPGGA,123962,181.800000,N,06711.761000,W,2,10,0.6,791.6,M,-32.8,M,,*45
$SDDBT,25.000000,f,7.620000,M,4.170000,F*
$GPGGA,123963,181.800000,N,06711.785000,W,2,10,0.6,791.6,M,-32.8,M,,*4E
$SDDBT,26.000000,f,7.920000,M,4.330000,F*A
$GPGGA,123964,181.775000,N,06711.718000,W,2,10,0.6,791.6,M,-32.8,M,,*40
$SDDBT,23.000000,f,7.010000,M,3.830000,F*9
$GPGGA,123965,181.746000,N,06711.661000,W,2,10,0.6,791.6,M,-32.8,M,,*4E
$SDDBT,22.000000,f,6.710000,M,3.670000,F*4
$GPGGA,123966,181.721000,N,06711.589000,W,2,10,0.6,791.6,M,-32.8,M,,*49
$SDDBT,19.000000,f,5.790000,M,3.170000,F*
$GPGGA,123967,181.702000,N,06711.527000,W,2,10,0.6,791.6,M,-32.8,M,,*4D
$SDDBT,18.000000,f,5.490000,M,3.000000,F*4
$GPGGA,123968,181.668000,N,06711.465000,W,2,10,0.6,791.6,M,-32.8,M,,*48
$SDDBT,16.000000,f,4.880000,M,2.670000,F*6
$GPGGA,123969,181.643000,N,06711.404000,W,2,10,0.6,791.6,M,-32.8,M,,*47
$SDDBT,15.000000,f,4.570000,M,2.500000,F*3
$GPGGA,123970,181.619000,N,06711.342000,W,2,10,0.6,791.6,M,-32.8,M,,*45
$SDDBT,21.000000,f,6.400000,M,3.500000,F*1
$GPGGA,123971,181.589000,N,06711.259000,W,2,10,0.6,791.6,M,-32.8,M,,*45
$SDDBT,14.000000,f,4.270000,M,2.330000,F*
$GPGGA,123972,181.565000,N,06711.187000,W,2,10,0.6,791.6,M,-32.8,M,,*44
$SDDBT,19.000000,f,5.790000,M,3.170000,F*
$GPGGA,123973,181.525000,N,06711.105000,W,2,10,0.6,791.6,M,-32.8,M,,*4B
$SDDBT,20.000000,f,6.100000,M,3.330000,F*
$GPGGA,123974,181.486000,N,06711.028000,W,2,10,0.6,791.6,M,-32.8,M,,*4A
$SDDBT,19.000000,f,5.790000,M,3.170000,F*
$GPGGA,123975,181.457000,N,06710.971000,W,2,10,0.6,791.6,M,-32.8,M,,*43
$SDDBT,19.000000,f,5.790000,M,3.170000,F*
$GPGGA,123976,181.423000,N,06710.909000,W,2,10,0.6,791.6,M,-32.8,M,,*4C
$SDDBT,17.000000,f,5.180000,M,2.830000,F*5
$GPGGA,123977,181.364000,N,06710.873000,W,2,10,0.6,791.6,M,-32.8,M,,*45
$SDDBT,17.000000,f,5.180000,M,2.830000,F*5
$GPGGA,123978,181.315000,N,06710.832000,W,2,10,0.6,791.6,M,-32.8,M,,*49
$SDDBT,17.000000,f,5.180000,M,2.830000,F*5
$GPGGA,123979,181.237000,N,06710.806000,W,2,10,0.6,791.6,M,-32.8,M,,*4E
$SDDBT,16.000000,f,4.880000,M,2.670000,F*6
$GPGGA,123980,181.173000,N,06710.801000,W,2,10,0.6,791.6,M,-32.8,M,,*4C
$SDDBT,17.000000,f,5.180000,M,2.830000,F*5
$GPGGA,123981,181.114000,N,06710.806000,W,2,10,0.6,791.6,M,-32.8,M,,*4B
$SDDBT,17.000000,f,5.180000,M,2.830000,F*5
$GPGGA,123982,181.046000,N,06710.806000,W,2,10,0.6,791.6,M,-32.8,M,,*4E
$SDDBT,17.000000,f,5.180000,M,2.830000,F*5
$GPGGA,123983,180.982000,N,06710.816000,W,2,10,0.6,791.6,M,-32.8,M,,*4E
$SDDBT,17.000000,f,5.180000,M,2.830000,F*5
$GPGGA,123984,180.923000,N,06710.837000,W,2,10,0.6,791.6,M,-32.8,M,,*41
$SDDBT,17.000000,f,5.180000,M,2.830000,F*5
$GPGGA,123985,180.869000,N,06710.868000,W,2,10,0.6,791.6,M,-32.8,M,,*45
$SDDBT,17.000000,f,5.180000,M,2.830000,F*5
$GPGGA,123986,180.825000,N,06710.889000,W,2,10,0.6,791.6,M,-32.8,M,,*41
$SDDBT,16.000000,f,4.880000,M,2.670000,F*6
$GPGGA,123987,180.757000,N,06710.945000,W,2,10,0.6,791.6,M,-32.8,M,,*4B
$SDDBT,19.000000,f,5.790000,M,3.170000,F*
$GPGGA,123988,180.708000,N,06710.976000,W,2,10,0.6,791.6,M,-32.8,M,,*4E
$SDDBT,19.000000,f,5.790000,M,3.170000,F*
$GPGGA,123989,180.664000,N,06711.028000,W,2,10,0.6,791.6,M,-32.8,M,,*47
$SDDBT,18.000000,f,5.490000,M,3.000000,F*4
$GPGGA,123990,180.644000,N,06711.079000,W,2,10,0.6,791.6,M,-32.8,M,,*49
$SDDBT,20.000000,f,6.100000,M,3.330000,F*
$GPGGA,123991,180.610000,N,06711.161000,W,2,10,0.6,791.6,M,-32.8,M,,*41
$SDDBT,21.000000,f,6.400000,M,3.500000,F*1
$GPGGA,123992,180.561000,N,06711.249000,W,2,10,0.6,791.6,M,-32.8,M,,*4E
$SDDBT,21.000000,f,6.400000,M,3.500000,F*1
$GPGGA,123993,180.517000,N,06711.357000,W,2,10,0.6,791.6,M,-32.8,M,,*40
$SDDBT,21.000000,f,6.400000,M,3.500000,F*1
$GPGGA,123994,180.477000,N,06711.460000,W,2,10,0.6,791.6,M,-32.8,M,,*43
$SDDBT,23.000000,f,7.010000,M,3.830000,F*9
$GPGGA,123995,180.448000,N,06711.563000,W,2,10,0.6,791.6,M,-32.8,M,,*4C
$SDDBT,23.000000,f,7.010000,M,3.830000,F*9
$GPGGA,123996,180.399000,N,06711.687000,W,2,10,0.6,791.6,M,-32.8,M,,*4D
$SDDBT,23.000000,f,7.010000,M,3.830000,F*9
$GPGGA,123997,180.365000,N,06711.774000,W,2,10,0.6,791.6,M,-32.8,M,,*42
$SDDBT,21.000000,f,6.400000,M,3.500000,F*1
$GPGGA,123998,180.326000,N,06711.877000,W,2,10,0.6,791.6,M,-32.8,M,,*46
$SDDBT,22.000000,f,6.710000,M,3.670000,F*4
$GPGGA,123999,180.291000,N,06711.975000,W,2,10,0.6,791.6,M,-32.8,M,,*49
$SDDBT,22.000000,f,6.710000,M,3.670000,F*4
$GPGGA,124000,180.291000,N,06711.999000,W,2,10,0.6,791.6,M,-32.8,M,,*45
$SDDBT,22.000000,f,6.710000,M,3.670000,F*4
$GPGGA,124001,180.326000,N,06711.901000,W,2,10,0.6,791.6,M,-32.8,M,,*48
$SDDBT,22.000000,f,6.710000,M,3.670000,F*4
$GPGGA,124002,180.365000,N,06711.798000,W,2,10,0.6,791.6,M,-32.8,M,,*42
$SDDBT,22.000000,f,6.710000,M,3.670000,F*4
$GPGGA,124003,180.399000,N,06711.711000,W,2,10,0.6,791.6,M,-32.8,M,,*41
$SDDBT,23.000000,f,7.010000,M,3.830000,F*9
$GPGGA,124004,180.448000,N,06711.587000,W,2,10,0.6,791.6,M,-32.8,M,,*40
$SDDBT,22.000000,f,6.710000,M,3.670000,F*4
$GPGGA,124005,180.477000,N,06711.484000,W,2,10,0.6,791.6,M,-32.8,M,,*4F
$SDDBT,23.000000,f,7.010000,M,3.830000,F*9
$GPGGA,124006,180.517000,N,06711.381000,W,2,10,0.6,791.6,M,-32.8,M,,*49
$SDDBT,22.000000,f,6.710000,M,3.670000,F*4
$GPGGA,124007,180.561000,N,06711.273000,W,2,10,0.6,791.6,M,-32.8,M,,*45
$SDDBT,21.000000,f,6.400000,M,3.500000,F*1
$GPGGA,124008,180.610000,N,06711.185000,W,2,10,0.6,791.6,M,-32.8,M,,*45
$SDDBT,21.000000,f,6.400000,M,3.500000,F*1
$GPGGA,124009,180.644000,N,06711.103000,W,2,10,0.6,791.6,M,-32.8,M,,*4B
$SDDBT,20.000000,f,6.100000,M,3.330000,F*
$GPGGA,124010,180.664000,N,06711.052000,W,2,10,0.6,791.6,M,-32.8,M,,*44
$SDDBT,19.000000,f,5.790000,M,3.170000,F*
$GPGGA,124011,180.708000,N,06711.000000,W,2,10,0.6,791.6,M,-32.8,M,,*49
$SDDBT,19.000000,f,5.790000,M,3.170000,F*
$GPGGA,124012,180.757000,N,06710.969000,W,2,10,0.6,791.6,M,-32.8,M,,*47
$SDDBT,19.000000,f,5.790000,M,3.170000,F*
$GPGGA,124013,180.825000,N,06710.913000,W,2,10,0.6,791.6,M,-32.8,M,,*41
$SDDBT,18.000000,f,5.490000,M,3.000000,F*4
$GPGGA,124014,180.869000,N,06710.892000,W,2,10,0.6,791.6,M,-32.8,M,,*46
$SDDBT,18.000000,f,5.490000,M,3.000000,F*4
$GPGGA,124015,180.923000,N,06710.861000,W,2,10,0.6,791.6,M,-32.8,M,,*44
$SDDBT,16.000000,f,4.880000,M,2.670000,F*6
$GPGGA,124016,180.982000,N,06710.840000,W,2,10,0.6,791.6,M,-32.8,M,,*4F
$SDDBT,17.000000,f,5.180000,M,2.830000,F*5
$GPGGA,124017,181.046000,N,06710.830000,W,2,10,0.6,791.6,M,-32.8,M,,*49
$SDDBT,17.000000,f,5.180000,M,2.830000,F*5
$GPGGA,124018,181.114000,N,06710.830000,W,2,10,0.6,791.6,M,-32.8,M,,*40
$SDDBT,17.000000,f,5.180000,M,2.830000,F*5
$GPGGA,124019,181.173000,N,06710.825000,W,2,10,0.6,791.6,M,-32.8,M,,*44
$SDDBT,16.000000,f,4.880000,M,2.670000,F*6
$GPGGA,124020,181.237000,N,06710.830000,W,2,10,0.6,791.6,M,-32.8,M,,*49
$SDDBT,16.000000,f,4.880000,M,2.670000,F*6
$GPGGA,124021,181.315000,N,06710.856000,W,2,10,0.6,791.6,M,-32.8,M,,*49
$SDDBT,16.000000,f,4.880000,M,2.670000,F*6
$GPGGA,124022,181.364000,N,06710.897000,W,2,10,0.6,791.6,M,-32.8,M,,*41
$SDDBT,18.000000,f,5.490000,M,3.000000,F*4
$GPGGA,124023,181.423000,N,06710.933000,W,2,10,0.6,791.6,M,-32.8,M,,*4B
$SDDBT,18.000000,f,5.490000,M,3.000000,F*4
$GPGGA,124024,181.457000,N,06710.995000,W,2,10,0.6,791.6,M,-32.8,M,,*43
$SDDBT,18.000000,f,5.490000,M,3.000000,F*4
$GPGGA,124025,181.486000,N,06711.052000,W,2,10,0.6,791.6,M,-32.8,M,,*4D
$SDDBT,19.000000,f,5.790000,M,3.170000,F*
$GPGGA,124026,181.525000,N,06711.129000,W,2,10,0.6,791.6,M,-32.8,M,,*4B
$SDDBT,20.000000,f,6.100000,M,3.330000,F*
$GPGGA,124027,181.565000,N,06711.211000,W,2,10,0.6,791.6,M,-32.8,M,,*46
$SDDBT,19.000000,f,5.790000,M,3.170000,F*
$GPGGA,124028,181.589000,N,06711.283000,W,2,10,0.6,791.6,M,-32.8,M,,*40
$SDDBT,16.000000,f,4.880000,M,2.670000,F*6
$GPGGA,124029,181.619000,N,06711.366000,W,2,10,0.6,791.6,M,-32.8,M,,*41
$SDDBT,20.000000,f,6.100000,M,3.330000,F*
$GPGGA,124030,181.643000,N,06711.428000,W,2,10,0.6,791.6,M,-32.8,M,,*4B
$SDDBT,16.000000,f,4.880000,M,2.670000,F*6
$GPGGA,124031,181.668000,N,06711.489000,W,2,10,0.6,791.6,M,-32.8,M,,*48
$SDDBT,17.000000,f,5.180000,M,2.830000,F*5
$GPGGA,124032,181.702000,N,06711.551000,W,2,10,0.6,791.6,M,-32.8,M,,*42
$SDDBT,20.000000,f,6.100000,M,3.330000,F*
$GPGGA,124033,181.721000,N,06711.613000,W,2,10,0.6,791.6,M,-32.8,M,,*47
$SDDBT,20.000000,f,6.100000,M,3.330000,F*
$GPGGA,124034,181.746000,N,06711.685000,W,2,10,0.6,791.6,M,-32.8,M,,*4E
$SDDBT,23.000000,f,7.010000,M,3.830000,F*9
$GPGGA,124035,181.775000,N,06711.742000,W,2,10,0.6,791.6,M,-32.8,M,,*45
$SDDBT,25.000000,f,7.620000,M,4.170000,F*
$GPGGA,124036,181.800000,N,06711.809000,W,2,10,0.6,791.6,M,-32.8,M,,*4B
$SDDBT,26.000000,f,7.920000,M,4.330000,F*A
$GPGGA,124037,181.800000,N,06711.833000,W,2,10,0.6,791.6,M,-32.8,M,,*43
$SDDBT,27.000000,f,8.230000,M,4.500000,F*B
$GPGGA,124038,181.775000,N,06711.766000,W,2,10,0.6,791.6,M,-32.8,M,,*4E
$SDDBT,26.000000,f,7.920000,M,4.330000,F*A
$GPGGA,124039,181.746000,N,06711.709000,W,2,10,0.6,791.6,M,-32.8,M,,*46
$SDDBT,23.000000,f,7.010000,M,3.830000,F*9
$GPGGA,124040,181.721000,N,06711.637000,W,2,10,0.6,791.6,M,-32.8,M,,*45
$SDDBT,22.000000,f,6.710000,M,3.670000,F*4
$GPGGA,124041,181.702000,N,06711.575000,W,2,10,0.6,791.6,M,-32.8,M,,*40
