$SDDBT,44.000000,f,13.410000,M,7.330000,F*36
$GPGGA,123519.000000,18.00000001.459000,N,67.000000010.443000,W,2,10,0.6,791.6,M,-32.8,M,,*59
$SDDBT,5.000000,f,1.520000,M,0.830000,F*3E
$GPGGA,123520.000000,18.00000001.440000,N,67.000000010.433000,W,2,10,0.6,791.6,M,-32.8,M,,*5C
$SDDBT,7.000000,f,2.130000,M,1.170000,F*36
$GPGGA,123521.000000,18.00000001.418000,N,67.000000010.423000,W,2,10,0.6,791.6,M,-32.8,M,,*51
$SDDBT,7.000000,f,2.130000,M,1.170000,F*36
$GPGGA,123522.000000,18.00000001.393000,N,67.000000010.407000,W,2,10,0.6,791.6,M,-32.8,M,,*50
$SDDBT,9.000000,f,2.740000,M,1.500000,F*3A
$GPGGA,123523.000000,18.00000001.369000,N,67.000000010.397000,W,2,10,0.6,791.6,M,-32.8,M,,*5A
$SDDBT,8.000000,f,2.440000,M,1.330000,F*3D
$GPGGA,123524.000000,18.00000001.344000,N,67.000000010.395000,W,2,10,0.6,791.6,M,-32.8,M,,*50
$SDDBT,8.000000,f,2.440000,M,1.330000,F*3D
$GPGGA,123525.000000,18.00000001.315000,N,67.000000010.389000,W,2,10,0.6,791.6,M,-32.8,M,,*58
$SDDBT,9.000000,f,2.740000,M,1.500000,F*3A
$GPGGA,123526.000000,18.00000001.278000,N,67.000000010.384000,W,2,10,0.6,791.6,M,-32.8,M,,*5C
$SDDBT,9.000000,f,2.740000,M,1.500000,F*3A
$GPGGA,123527.000000,18.00000001.256000,N,67.000000010.384000,W,2,10,0.6,791.6,M,-32.8,M,,*51
$SDDBT,10.000000,f,3.050000,M,1.670000,F*1
$GPGGA,123528.000000,18.00000001.217000,N,67.000000010.384000,W,2,10,0.6,791.6,M,-32.8,M,,*5B
$SDDBT,7.000000,f,2.130000,M,1.170000,F*36
$GPGGA,123529.000000,18.00000001.185000,N,67.000000010.382000,W,2,10,0.6,791.6,M,-32.8,M,,*54
$SDDBT,6.000000,f,1.830000,M,1.000000,F*3B
$GPGGA,123530.000000,18.00000001.153000,N,67.000000010.379000,W,2,10,0.6,791.6,M,-32.8,M,,*53
$SDDBT,7.000000,f,2.130000,M,1.170000,F*36
$GPGGA,123531.000000,18.00000001.112000,N,67.000000010.379000,W,2,10,0.6,791.6,M,-32.8,M,,*57
$SDDBT,7.000000,f,2.130000,M,1.170000,F*36
$GPGGA,123532.000000,18.00000001.077000,N,67.000000010.387000,W,2,10,0.6,791.6,M,-32.8,M,,*57
$SDDBT,8.000000,f,2.440000,M,1.330000,F*3D
$GPGGA,123533.000000,18.00000001.043000,N,67.000000010.387000,W,2,10,0.6,791.6,M,-32.8,M,,*51
$SDDBT,10.000000,f,3.050000,M,1.670000,F*1
$GPGGA,123534.000000,18.00000001.011000,N,67.000000010.395000,W,2,10,0.6,791.6,M,-32.8,M,,*52
$SDDBT,11.000000,f,3.350000,M,1.830000,F*9
$GPGGA,123535.000000,18.00000000.982000,N,67.000000010.400000,W,2,10,0.6,791.6,M,-32.8,M,,*5A
$SDDBT,11.000000,f,3.350000,M,1.830000,F*9
$GPGGA,123536.000000,18.00000000.950000,N,67.000000010.405000,W,2,10,0.6,791.6,M,-32.8,M,,*53
$SDDBT,10.000000,f,3.050000,M,1.670000,F*1
$GPGGA,123537.000000,18.00000000.921000,N,67.000000010.415000,W,2,10,0.6,791.6,M,-32.8,M,,*55
$SDDBT,10.000000,f,3.050000,M,1.670000,F*1
$GPGGA,123538.000000,18.00000000.891000,N,67.000000010.418000,W,2,10,0.6,791.6,M,-32.8,M,,*5D
$SDDBT,10.000000,f,3.050000,M,1.670000,F*1
$GPGGA,123539.000000,18.00000000.864000,N,67.000000010.420000,W,2,10,0.6,791.6,M,-32.8,M,,*5D
$SDDBT,10.000000,f,3.050000,M,1.670000,F*1
$GPGGA,123540.000000,18.00000000.840000,N,67.000000010.431000,W,2,10,0.6,791.6,M,-32.8,M,,*55
$SDDBT,10.000000,f,3.050000,M,1.670000,F*1
$GPGGA,123541.000000,18.00000000.806000,N,67.000000010.449000,W,2,10,0.6,791.6,M,-32.8,M,,*59
$SDDBT,10.000000,f,3.050000,M,1.670000,F*1
$GPGGA,123542.000000,18.00000000.781000,N,67.000000010.456000,W,2,10,0.6,791.6,M,-32.8,M,,*54
$SDDBT,9.000000,f,2.740000,M,1.500000,F*3A
$GPGGA,123543.000000,18.00000000.759000,N,67.000000010.477000,W,2,10,0.6,791.6,M,-32.8,M,,*53
$SDDBT,9.000000,f,2.740000,M,1.500000,F*3A
$GPGGA,123544.000000,18.00000000.735000,N,67.000000010.495000,W,2,10,0.6,791.6,M,-32.8,M,,*52
$SDDBT,8.000000,f,2.440000,M,1.330000,F*3D
$GPGGA,123545.000000,18.00000000.703000,N,67.000000010.521000,W,2,10,0.6,791.6,M,-32.8,M,,*58
$SDDBT,9.000000,f,2.740000,M,1.500000,F*3A
$GPGGA,123546.000000,18.00000000.688000,N,67.000000010.536000,W,2,10,0.6,791.6,M,-32.8,M,,*5F
$SDDBT,8.000000,f,2.440000,M,1.330000,F*3D
$GPGGA,123547.000000,18.00000000.688000,N,67.000000010.560000,W,2,10,0.6,791.6,M,-32.8,M,,*5D
$SDDBT,9.000000,f,2.740000,M,1.500000,F*3A
$GPGGA,123548.000000,18.00000000.703000,N,67.000000010.545000,W,2,10,0.6,791.6,M,-32.8,M,,*57
$SDDBT,9.000000,f,2.740000,M,1.500000,F*3A
$GPGGA,123549.000000,18.00000000.735000,N,67.000000010.519000,W,2,10,0.6,791.6,M,-32.8,M,,*5A
$SDDBT,8.000000,f,2.440000,M,1.330000,F*3D
$GPGGA,123550.000000,18.00000000.759000,N,67.000000010.501000,W,2,10,0.6,791.6,M,-32.8,M,,*51
$SDDBT,8.000000,f,2.440000,M,1.330000,F*3D
$GPGGA,123551.000000,18.00000000.781000,N,67.000000010.480000,W,2,10,0.6,791.6,M,-32.8,M,,*5D
$SDDBT,9.000000,f,2.740000,M,1.500000,F*3A
$GPGGA,123552.000000,18.00000000.806000,N,67.000000010.473000,W,2,10,0.6,791.6,M,-32.8,M,,*52
$SDDBT,9.000000,f,2.740000,M,1.500000,F*3A
$GPGGA,123553.000000,18.00000000.840000,N,67.000000010.455000,W,2,10,0.6,791.6,M,-32.8,M,,*55
$SDDBT,10.000000,f,3.050000,M,1.670000,F*1
$GPGGA,123554.000000,18.00000000.864000,N,67.000000010.444000,W,2,10,0.6,791.6,M,-32.8,M,,*54
$SDDBT,10.000000,f,3.050000,M,1.670000,F*1
$GPGGA,123555.000000,18.00000000.891000,N,67.000000010.442000,W,2,10,0.6,791.6,M,-32.8,M,,*59
$SDDBT,10.000000,f,3.050000,M,1.670000,F*1
$GPGGA,123556.000000,18.00000000.921000,N,67.000000010.439000,W,2,10,0.6,791.6,M,-32.8,M,,*5C
$SDDBT,10.000000,f,3.050000,M,1.670000,F*1
$GPGGA,123557.000000,18.00000000.950000,N,67.000000010.429000,W,2,10,0.6,791.6,M,-32.8,M,,*5A
$SDDBT,10.000000,f,3.050000,M,1.670000,F*1
$GPGGA,123558.000000,18.00000000.982000,N,67.000000010.424000,W,2,10,0.6,791.6,M,-32.8,M,,*57
$SDDBT,10.000000,f,3.050000,M,1.670000,F*1
$GPGGA,123559.000000,18.00000001.011000,N,67.000000010.419000,W,2,10,0.6,791.6,M,-32.8,M,,*5A
$SDDBT,10.000000,f,3.050000,M,1.670000,F*1
$GPGGA,123560.000000,18.00000001.043000,N,67.000000010.411000,W,2,10,0.6,791.6,M,-32.8,M,,*5F
$SDDBT,9.000000,f,2.740000,M,1.500000,F*3A
$GPGGA,123561.000000,18.00000001.077000,N,67.000000010.411000,W,2,10,0.6,791.6,M,-32.8,M,,*59
$SDDBT,10.000000,f,3.050000,M,1.670000,F*1
$GPGGA,123562.000000,18.00000001.112000,N,67.000000010.403000,W,2,10,0.6,791.6,M,-32.8,M,,*5B
$SDDBT,10.000000,f,3.050000,M,1.670000,F*1
$GPGGA,123563.000000,18.00000001.153000,N,67.000000010.403000,W,2,10,0.6,791.6,M,-32.8,M,,*5F
$SDDBT,9.000000,f,2.740000,M,1.500000,F*3A
$GPGGA,123564.000000,18.00000001.185000,N,67.000000010.406000,W,2,10,0.6,791.6,M,-32.8,M,,*56
$SDDBT,7.000000,f,2.130000,M,1.170000,F*36
$GPGGA,123565.000000,18.00000001.217000,N,67.000000010.408000,W,2,10,0.6,791.6,M,-32.8,M,,*51
$SDDBT,10.000000,f,3.050000,M,1.670000,F*1
$GPGGA,123566.000000,18.00000001.256000,N,67.000000010.408000,W,2,10,0.6,791.6,M,-32.8,M,,*57
$SDDBT,10.000000,f,3.050000,M,1.670000,F*1
$GPGGA,123567.000000,18.00000001.278000,N,67.000000010.408000,W,2,10,0.6,791.6,M,-32.8,M,,*5A
$SDDBT,10.000000,f,3.050000,M,1.670000,F*1
$GPGGA,123568.000000,18.00000001.315000,N,67.000000010.413000,W,2,10,0.6,791.6,M,-32.8,M,,*55
$SDDBT,10.000000,f,3.050000,M,1.670000,F*1
$GPGGA,123569.000000,18.00000001.344000,N,67.000000010.419000,W,2,10,0.6,791.6,M,-32.8,M,,*5A
$SDDBT,9.000000,f,2.740000,M,1.500000,F*3A
$GPGGA,123570.000000,18.00000001.369000,N,67.000000010.421000,W,2,10,0.6,791.6,M,-32.8,M,,*56
$SDDBT,9.000000,f,2.740000,M,1.500000,F*3A
$GPGGA,123571.000000,18.00000001.393000,N,67.000000010.431000,W,2,10,0.6,791.6,M,-32.8,M,,*53
$SDDBT,9.000000,f,2.740000,M,1.500000,F*3A
$GPGGA,123572.000000,18.00000001.418000,N,67.000000010.447000,W,2,10,0.6,791.6,M,-32.8,M,,*55
$SDDBT,8.000000,f,2.440000,M,1.330000,F*3D
$GPGGA,123573.000000,18.00000001.440000,N,67.000000010.457000,W,2,10,0.6,791.6,M,-32.8,M,,*58
$SDDBT,9.000000,f,2.740000,M,1.500000,F*3A
$GPGGA,123574.000000,18.00000001.459000,N,67.000000010.467000,W,2,10,0.6,791.6,M,-32.8,M,,*54
$SDDBT,4.000000,f,1.220000,M,0.670000,F*32
$GPGGA,123575.000000,18.00000001.459000,N,67.000000010.491000,W,2,10,0.6,791.6,M,-32.8,M,,*5C
$SDDBT,1.000000,f,0.300000,M,0.170000,F*32
$GPGGA,123576.000000,18.00000001.440000,N,67.000000010.481000,W,2,10,0.6,791.6,M,-32.8,M,,*56
$SDDBT,8.000000,f,2.440000,M,1.330000,F*3D
$GPGGA,123577.000000,18.00000001.418000,N,67.000000010.471000,W,2,10,0.6,791.6,M,-32.8,M,,*55
$SDDBT,9.000000,f,2.740000,M,1.500000,F*3A
$GPGGA,123578.000000,18.00000001.393000,N,67.000000010.455000,W,2,10,0.6,791.6,M,-32.8,M,,*58
$SDDBT,10.000000,f,3.050000,M,1.670000,F*1
$GPGGA,123579.000000,18.00000001.369000,N,67.000000010.445000,W,2,10,0.6,791.6,M,-32.8,M,,*5D
$SDDBT,10.000000,f,3.050000,M,1.670000,F*1
$GPGGA,123580.000000,18.00000001.344000,N,67.000000010.443000,W,2,10,0.6,791.6,M,-32.8,M,,*52
$SDDBT,11.000000,f,3.350000,M,1.830000,F*9
$GPGGA,123581.000000,18.00000001.315000,N,67.000000010.437000,W,2,10,0.6,791.6,M,-32.8,M,,*54
$SDDBT,10.000000,f,3.050000,M,1.670000,F*1
$GPGGA,123582.000000,18.00000001.278000,N,67.000000010.432000,W,2,10,0.6,791.6,M,-32.8,M,,*58
$SDDBT,10.000000,f,3.050000,M,1.670000,F*1
$GPGGA,123583.000000,18.00000001.256000,N,67.000000010.432000,W,2,10,0.6,791.6,M,-32.8,M,,*55
$SDDBT,10.000000,f,3.050000,M,1.670000,F*1
$GPGGA,123584.000000,18.00000001.217000,N,67.000000010.432000,W,2,10,0.6,791.6,M,-32.8,M,,*57
$SDDBT,10.000000,f,3.050000,M,1.670000,F*1
$GPGGA,123585.000000,18.00000001.185000,N,67.000000010.430000,W,2,10,0.6,791.6,M,-32.8,M,,*5C
$SDDBT,11.000000,f,3.350000,M,1.830000,F*9
$GPGGA,123586.000000,18.00000001.153000,N,67.000000010.427000,W,2,10,0.6,791.6,M,-32.8,M,,*52
$SDDBT,11.000000,f,3.350000,M,1.830000,F*9
$GPGGA,123587.000000,18.00000001.112000,N,67.000000010.427000,W,2,10,0.6,791.6,M,-32.8,M,,*56
$SDDBT,11.000000,f,3.350000,M,1.830000,F*9
$GPGGA,123588.000000,18.00000001.077000,N,67.000000010.435000,W,2,10,0.6,791.6,M,-32.8,M,,*58
$SDDBT,11.000000,f,3.350000,M,1.830000,F*9
$GPGGA,123589.000000,18.00000001.043000,N,67.000000010.435000,W,2,10,0.6,791.6,M,-32.8,M,,*5E
$SDDBT,10.000000,f,3.050000,M,1.670000,F*1
$GPGGA,123590.000000,18.00000001.011000,N,67.000000010.443000,W,2,10,0.6,791.6,M,-32.8,M,,*50
$SDDBT,10.000000,f,3.050000,M,1.670000,F*1
$GPGGA,123591.000000,18.00000000.982000,N,67.000000010.448000,W,2,10,0.6,791.6,M,-32.8,M,,*58
$SDDBT,10.000000,f,3.050000,M,1.670000,F*1
$GPGGA,123592.000000,18.00000000.950000,N,67.000000010.453000,W,2,10,0.6,791.6,M,-32.8,M,,*5E
$SDDBT,11.000000,f,3.350000,M,1.830000,F*9
$GPGGA,123593.000000,18.00000000.921000,N,67.000000010.463000,W,2,10,0.6,791.6,M,-32.8,M,,*5A
$SDDBT,10.000000,f,3.050000,M,1.670000,F*1
$GPGGA,123594.000000,18.00000000.891000,N,67.000000010.466000,W,2,10,0.6,791.6,M,-32.8,M,,*52
$SDDBT,10.000000,f,3.050000,M,1.670000,F*1
$GPGGA,123595.000000,18.00000000.864000,N,67.000000010.468000,W,2,10,0.6,791.6,M,-32.8,M,,*57
$SDDBT,11.000000,f,3.350000,M,1.830000,F*9
$GPGGA,123596.000000,18.00000000.840000,N,67.000000010.479000,W,2,10,0.6,791.6,M,-32.8,M,,*52
$SDDBT,10.000000,f,3.050000,M,1.670000,F*1
$GPGGA,123597.000000,18.00000000.806000,N,67.000000010.497000,W,2,10,0.6,791.6,M,-32.8,M,,*51
$SDDBT,9.000000,f,2.740000,M,1.500000,F*3A
$GPGGA,123598.000000,18.00000000.781000,N,67.000000010.504000,W,2,10,0.6,791.6,M,-32.8,M,,*55
$SDDBT,8.000000,f,2.440000,M,1.330000,F*3D
$GPGGA,123599.000000,18.00000000.759000,N,67.000000010.525000,W,2,10,0.6,791.6,M,-32.8,M,,*52
$SDDBT,8.000000,f,2.440000,M,1.330000,F*3D
$GPGGA,123600.000000,18.00000000.735000,N,67.000000010.543000,W,2,10,0.6,791.6,M,-32.8,M,,*5B
$SDDBT,9.000000,f,2.740000,M,1.500000,F*3A
$GPGGA,123601.000000,18.00000000.703000,N,67.000000010.569000,W,2,10,0.6,791.6,M,-32.8,M,,*57
$SDDBT,9.000000,f,2.740000,M,1.500000,F*3A
$GPGGA,123602.000000,18.00000000.688000,N,67.000000010.584000,W,2,10,0.6,791.6,M,-32.8,M,,*55
$SDDBT,9.000000,f,2.740000,M,1.500000,F*3A
$GPGGA,123603.000000,18.00000000.688000,N,67.000000010.608000,W,2,10,0.6,791.6,M,-32.8,M,,*53
$SDDBT,9.000000,f,2.740000,M,1.500000,F*3A
$GPGGA,123604.000000,18.00000000.703000,N,67.000000010.593000,W,2,10,0.6,791.6,M,-32.8,M,,*57
$SDDBT,9.000000,f,2.740000,M,1.500000,F*3A
$GPGGA,123605.000000,18.00000000.735000,N,67.000000010.567000,W,2,10,0.6,791.6,M,-32.8,M,,*58
$SDDBT,10.000000,f,3.050000,M,1.670000,F*1
$GPGGA,123606.000000,18.00000000.759000,N,67.000000010.549000,W,2,10,0.6,791.6,M,-32.8,M,,*5D
$SDDBT,9.000000,f,2.740000,M,1.500000,F*3A
$GPGGA,123607.000000,18.00000000.781000,N,67.000000010.528000,W,2,10,0.6,791.6,M,-32.8,M,,*5E
$SDDBT,8.000000,f,2.440000,M,1.330000,F*3D
$GPGGA,123608.000000,18.00000000.806000,N,67.000000010.521000,W,2,10,0.6,791.6,M,-32.8,M,,*58
$SDDBT,10.000000,f,3.050000,M,1.670000,F*1
$GPGGA,123609.000000,18.00000000.840000,N,67.000000010.503000,W,2,10,0.6,791.6,M,-32.8,M,,*5B
$SDDBT,10.000000,f,3.050000,M,1.670000,F*1
$GPGGA,123610.000000,18.00000000.864000,N,67.000000010.492000,W,2,10,0.6,791.6,M,-32.8,M,,*5C
$SDDBT,11.000000,f,3.350000,M,1.830000,F*9
$GPGGA,123611.000000,18.00000000.891000,N,67.000000010.490000,W,2,10,0.6,791.6,M,-32.8,M,,*55
$SDDBT,10.000000,f,3.050000,M,1.670000,F*1
$GPGGA,123612.000000,18.00000000.921000,N,67.000000010.487000,W,2,10,0.6,791.6,M,-32.8,M,,*5A
$SDDBT,10.000000,f,3.050000,M,1.670000,F*1
$GPGGA,123613.000000,18.00000000.950000,N,67.000000010.477000,W,2,10,0.6,791.6,M,-32.8,M,,*52
$SDDBT,11.000000,f,3.350000,M,1.830000,F*9
$GPGGA,123614.000000,18.00000000.982000,N,67.000000010.472000,W,2,10,0.6,791.6,M,-32.8,M,,*5F
$SDDBT,10.000000,f,3.050000,M,1.670000,F*1
$GPGGA,123615.000000,18.00000001.011000,N,67.000000010.467000,W,2,10,0.6,791.6,M,-32.8,M,,*58
$SDDBT,10.000000,f,3.050000,M,1.670000,F*1
$GPGGA,123616.000000,18.00000001.043000,N,67.000000010.459000,W,2,10,0.6,791.6,M,-32.8,M,,*51
$SDDBT,10.000000,f,3.050000,M,1.670000,F*1
$GPGGA,123617.000000,18.00000001.077000,N,67.000000010.459000,W,2,10,0.6,791.6,M,-32.8,M,,*57
$SDDBT,11.000000,f,3.350000,M,1.830000,F*9
$GPGGA,123618.000000,18.00000001.112000,N,67.000000010.451000,W,2,10,0.6,791.6,M,-32.8,M,,*52
$SDDBT,11.000000,f,3.350000,M,1.830000,F*9
$GPGGA,123619.000000,18.00000001.153000,N,67.000000010.451000,W,2,10,0.6,791.6,M,-32.8,M,,*56
$SDDBT,11.000000,f,3.350000,M,1.830000,F*9
$GPGGA,123620.000000,18.00000001.185000,N,67.000000010.454000,W,2,10,0.6,791.6,M,-32.8,M,,*52
$SDDBT,11.000000,f,3.350000,M,1.830000,F*9
$GPGGA,123621.000000,18.00000001.217000,N,67.000000010.456000,W,2,10,0.6,791.6,M,-32.8,M,,*59
$SDDBT,11.000000,f,3.350000,M,1.830000,F*9
$GPGGA,123622.000000,18.00000001.256000,N,67.000000010.456000,W,2,10,0.6,791.6,M,-32.8,M,,*5F
$SDDBT,10.000000,f,3.050000,M,1.670000,F*1
$GPGGA,123623.000000,18.00000001.278000,N,67.000000010.456000,W,2,10,0.6,791.6,M,-32.8,M,,*52
$SDDBT,10.000000,f,3.050000,M,1.670000,F*1
$GPGGA,123624.000000,18.00000001.315000,N,67.000000010.461000,W,2,10,0.6,791.6,M,-32.8,M,,*5B
$SDDBT,10.000000,f,3.050000,M,1.670000,F*1
$GPGGA,123625.000000,18.00000001.344000,N,67.000000010.467000,W,2,10,0.6,791.6,M,-32.8,M,,*58
$SDDBT,11.000000,f,3.350000,M,1.830000,F*9
$GPGGA,123626.000000,18.00000001.369000,N,67.000000010.469000,W,2,10,0.6,791.6,M,-32.8,M,,*5A
$SDDBT,11.000000,f,3.350000,M,1.830000,F*9
$GPGGA,123627.000000,18.00000001.393000,N,67.000000010.479000,W,2,10,0.6,791.6,M,-32.8,M,,*5F
$SDDBT,11.000000,f,3.350000,M,1.830000,F*9
$GPGGA,123628.000000,18.00000001.418000,N,67.000000010.495000,W,2,10,0.6,791.6,M,-32.8,M,,*56
$SDDBT,11.000000,f,3.350000,M,1.830000,F*9
$GPGGA,123629.000000,18.00000001.440000,N,67.000000010.505000,W,2,10,0.6,791.6,M,-32.8,M,,*52
$SDDBT,8.000000,f,2.440000,M,1.330000,F*3D
$GPGGA,123630.000000,18.00000001.459000,N,67.000000010.515000,W,2,10,0.6,791.6,M,-32.8,M,,*53
$SDDBT,3.000000,f,0.910000,M,0.500000,F*38
$GPGGA,123631.000000,18.00000001.459000,N,67.000000010.539000,W,2,10,0.6,791.6,M,-32.8,M,,*5C
$SDDBT,8.000000,f,2.440000,M,1.330000,F*3D
$GPGGA,123632.000000,18.00000001.440000,N,67.000000010.529000,W,2,10,0.6,791.6,M,-32.8,M,,*56
$SDDBT,11.000000,f,3.350000,M,1.830000,F*9
$GPGGA,123633.000000,18.00000001.418000,N,67.000000010.519000,W,2,10,0.6,791.6,M,-32.8,M,,*59
$SDDBT,10.000000,f,3.050000,M,1.670000,F*1
$GPGGA,123634.000000,18.00000001.393000,N,67.000000010.503000,W,2,10,0.6,791.6,M,-32.8,M,,*51
$SDDBT,10.000000,f,3.050000,M,1.670000,F*1
$GPGGA,123635.000000,18.00000001.369000,N,67.000000010.493000,W,2,10,0.6,791.6,M,-32.8,M,,*5D
$SDDBT,11.000000,f,3.350000,M,1.830000,F*9
$GPGGA,123636.000000,18.00000001.344000,N,67.000000010.491000,W,2,10,0.6,791.6,M,-32.8,M,,*53
$SDDBT,11.000000,f,3.350000,M,1.830000,F*9
$GPGGA,123637.000000,18.00000001.315000,N,67.000000010.485000,W,2,10,0.6,791.6,M,-32.8,M,,*53
$SDDBT,11.000000,f,3.350000,M,1.830000,F*9
$GPGGA,123638.000000,18.00000001.278000,N,67.000000010.480000,W,2,10,0.6,791.6,M,-32.8,M,,*53
$SDDBT,11.000000,f,3.350000,M,1.830000,F*9
$GPGGA,123639.000000,18.00000001.256000,N,67.000000010.480000,W,2,10,0.6,791.6,M,-32.8,M,,*5E
$SDDBT,10.000000,f,3.050000,M,1.670000,F*1
$GPGGA,123640.000000,18.00000001.217000,N,67.000000010.480000,W,2,10,0.6,791.6,M,-32.8,M,,*55
$SDDBT,11.000000,f,3.350000,M,1.830000,F*9
$GPGGA,123641.000000,18.00000001.185000,N,67.000000010.478000,W,2,10,0.6,791.6,M,-32.8,M,,*5B
$SDDBT,13.000000,f,3.960000,M,2.170000,F*C
$GPGGA,123642.000000,18.00000001.153000,N,67.000000010.475000,W,2,10,0.6,791.6,M,-32.8,M,,*5E
$SDDBT,12.000000,f,3.660000,M,2.000000,F*4
$GPGGA,123643.000000,18.00000001.112000,N,67.000000010.475000,W,2,10,0.6,791.6,M,-32.8,M,,*5A
$SDDBT,12.000000,f,3.660000,M,2.000000,F*4
$GPGGA,123644.000000,18.00000001.077000,N,67.000000010.483000,W,2,10,0.6,791.6,M,-32.8,M,,*56
$SDDBT,11.000000,f,3.350000,M,1.830000,F*9
$GPGGA,123645.000000,18.00000001.043000,N,67.000000010.483000,W,2,10,0.6,791.6,M,-32.8,M,,*50
$SDDBT,10.000000,f,3.050000,M,1.670000,F*1
$GPGGA,123646.000000,18.00000001.011000,N,67.000000010.491000,W,2,10,0.6,791.6,M,-32.8,M,,*57
$SDDBT,10.000000,f,3.050000,M,1.670000,F*1
$GPGGA,123647.000000,18.00000000.982000,N,67.000000010.496000,W,2,10,0.6,791.6,M,-32.8,M,,*53
$SDDBT,10.000000,f,3.050000,M,1.670000,F*1
$GPGGA,123648.000000,18.00000000.950000,N,67.000000010.501000,W,2,10,0.6,791.6,M,-32.8,M,,*5C
$SDDBT,11.000000,f,3.350000,M,1.830000,F*9
$GPGGA,123649.000000,18.00000000.921000,N,67.000000010.511000,W,2,10,0.6,791.6,M,-32.8,M,,*5A
$SDDBT,10.000000,f,3.050000,M,1.670000,F*1
$GPGGA,123650.000000,18.00000000.891000,N,67.000000010.514000,W,2,10,0.6,791.6,M,-32.8,M,,*5D
$SDDBT,11.000000,f,3.350000,M,1.830000,F*9
$GPGGA,123651.000000,18.00000000.864000,N,67.000000010.516000,W,2,10,0.6,791.6,M,-32.8,M,,*54
$SDDBT,10.000000,f,3.050000,M,1.670000,F*1
$GPGGA,123652.000000,18.00000000.840000,N,67.000000010.527000,W,2,10,0.6,791.6,M,-32.8,M,,*53
$SDDBT,11.000000,f,3.350000,M,1.830000,F*9
$GPGGA,123653.000000,18.00000000.806000,N,67.000000010.545000,W,2,10,0.6,791.6,M,-32.8,M,,*54
$SDDBT,10.000000,f,3.050000,M,1.670000,F*1
$GPGGA,123654.000000,18.00000000.781000,N,67.000000010.552000,W,2,10,0.6,791.6,M,-32.8,M,,*55
$SDDBT,9.000000,f,2.740000,M,1.500000,F*3A
$GPGGA,123655.000000,18.00000000.759000,N,67.000000010.573000,W,2,10,0.6,791.6,M,-32.8,M,,*52
$SDDBT,10.000000,f,3.050000,M,1.670000,F*1
$GPGGA,123656.000000,18.00000000.735000,N,67.000000010.591000,W,2,10,0.6,791.6,M,-32.8,M,,*57
$SDDBT,10.000000,f,3.050000,M,1.670000,F*1
$GPGGA,123657.000000,18.00000000.703000,N,67.000000010.617000,W,2,10,0.6,791.6,M,-32.8,M,,*5E
$SDDBT,9.000000,f,2.740000,M,1.500000,F*3A
$GPGGA,123658.000000,18.00000000.688000,N,67.000000010.632000,W,2,10,0.6,791.6,M,-32.8,M,,*54
$SDDBT,10.000000,f,3.050000,M,1.670000,F*1
$GPGGA,123659.000000,18.00000000.688000,N,67.000000010.656000,W,2,10,0.6,791.6,M,-32.8,M,,*57
$SDDBT,10.000000,f,3.050000,M,1.670000,F*1
$GPGGA,123660.000000,18.00000000.703000,N,67.000000010.641000,W,2,10,0.6,791.6,M,-32.8,M,,*59
$SDDBT,10.000000,f,3.050000,M,1.670000,F*1
$GPGGA,123661.000000,18.00000000.735000,N,67.000000010.615000,W,2,10,0.6,791.6,M,-32.8,M,,*5C
$SDDBT,10.000000,f,3.050000,M,1.670000,F*1
$GPGGA,123662.000000,18.00000000.759000,N,67.000000010.597000,W,2,10,0.6,791.6,M,-32.8,M,,*5C
$SDDBT,10.000000,f,3.050000,M,1.670000,F*1
$GPGGA,123663.000000,18.00000000.781000,N,67.000000010.576000,W,2,10,0.6,791.6,M,-32.8,M,,*57
$SDDBT,11.000000,f,3.350000,M,1.830000,F*9
$GPGGA,123664.000000,18.00000000.806000,N,67.000000010.569000,W,2,10,0.6,791.6,M,-32.8,M,,*5E
$SDDBT,10.000000,f,3.050000,M,1.670000,F*1
$GPGGA,123665.000000,18.00000000.840000,N,67.000000010.551000,W,2,10,0.6,791.6,M,-32.8,M,,*56
$SDDBT,12.000000,f,3.660000,M,2.000000,F*4
$GPGGA,123666.000000,18.00000000.864000,N,67.000000010.540000,W,2,10,0.6,791.6,M,-32.8,M,,*53
$SDDBT,11.000000,f,3.350000,M,1.830000,F*9
$GPGGA,123667.000000,18.00000000.891000,N,67.000000010.538000,W,2,10,0.6,791.6,M,-32.8,M,,*57
$SDDBT,11.000000,f,3.350000,M,1.830000,F*9
$GPGGA,123668.000000,18.00000000.921000,N,67.000000010.535000,W,2,10,0.6,791.6,M,-32.8,M,,*5F
$SDDBT,9.000000,f,2.740000,M,1.500000,F*3A
$GPGGA,123669.000000,18.00000000.950000,N,67.000000010.525000,W,2,10,0.6,791.6,M,-32.8,M,,*59
$SDDBT,9.000000,f,2.740000,M,1.500000,F*3A
$GPGGA,123670.000000,18.00000000.982000,N,67.000000010.520000,W,2,10,0.6,791.6,M,-32.8,M,,*5B
$SDDBT,10.000000,f,3.050000,M,1.670000,F*1
$GPGGA,123671.000000,18.00000001.011000,N,67.000000010.515000,W,2,10,0.6,791.6,M,-32.8,M,,*5E
$SDDBT,10.000000,f,3.050000,M,1.670000,F*1
$GPGGA,123672.000000,18.00000001.043000,N,67.000000010.507000,W,2,10,0.6,791.6,M,-32.8,M,,*59
$SDDBT,11.000000,f,3.350000,M,1.830000,F*9
$GPGGA,123673.000000,18.00000001.077000,N,67.000000010.507000,W,2,10,0.6,791.6,M,-32.8,M,,*5F
$SDDBT,12.000000,f,3.660000,M,2.000000,F*4
$GPGGA,123674.000000,18.00000001.112000,N,67.000000010.499000,W,2,10,0.6,791.6,M,-32.8,M,,*5C
$SDDBT,12.000000,f,3.660000,M,2.000000,F*4
$GPGGA,123675.000000,18.00000001.153000,N,67.000000010.499000,W,2,10,0.6,791.6,M,-32.8,M,,*58
$SDDBT,12.000000,f,3.660000,M,2.000000,F*4
$GPGGA,123676.000000,18.00000001.185000,N,67.000000010.502000,W,2,10,0.6,791.6,M,-32.8,M,,*53
$SDDBT,13.000000,f,3.960000,M,2.170000,F*C
$GPGGA,123677.000000,18.00000001.217000,N,67.000000010.504000,W,2,10,0.6,791.6,M,-32.8,M,,*5C
$SDDBT,12.000000,f,3.660000,M,2.000000,F*4
$GPGGA,123678.000000,18.00000001.256000,N,67.000000010.504000,W,2,10,0.6,791.6,M,-32.8,M,,*56
$SDDBT,11.000000,f,3.350000,M,1.830000,F*9
$GPGGA,123679.000000,18.00000001.278000,N,67.000000010.504000,W,2,10,0.6,791.6,M,-32.8,M,,*5B
$SDDBT,11.000000,f,3.350000,M,1.830000,F*9
$GPGGA,123680.000000,18.00000001.315000,N,67.000000010.509000,W,2,10,0.6,791.6,M,-32.8,M,,*5A
$SDDBT,13.000000,f,3.960000,M,2.170000,F*C
$GPGGA,123681.000000,18.00000001.344000,N,67.000000010.515000,W,2,10,0.6,791.6,M,-32.8,M,,*52
$SDDBT,13.000000,f,3.960000,M,2.170000,F*C
$GPGGA,123682.000000,18.00000001.369000,N,67.000000010.517000,W,2,10,0.6,791.6,M,-32.8,M,,*5C
$SDDBT,13.000000,f,3.960000,M,2.170000,F*C
$GPGGA,123683.000000,18.00000001.393000,N,67.000000010.527000,W,2,10,0.6,791.6,M,-32.8,M,,*5B
$SDDBT,12.000000,f,3.660000,M,2.000000,F*4
$GPGGA,123684.000000,18.00000001.418000,N,67.000000010.543000,W,2,10,0.6,791.6,M,-32.8,M,,*5A
$SDDBT,10.000000,f,3.050000,M,1.670000,F*1
$GPGGA,123685.000000,18.00000001.440000,N,67.000000010.553000,W,2,10,0.6,791.6,M,-32.8,M,,*57
$SDDBT,10.000000,f,3.050000,M,1.670000,F*1
$GPGGA,123686.000000,18.00000001.459000,N,67.000000010.563000,W,2,10,0.6,791.6,M,-32.8,M,,*5F
$SDDBT,10.000000,f,3.050000,M,1.670000,F*1
$GPGGA,123687.000000,18.00000001.459000,N,67.000000010.587000,W,2,10,0.6,791.6,M,-32.8,M,,*54
$SDDBT,11.000000,f,3.350000,M,1.830000,F*9
$GPGGA,123688.000000,18.00000001.440000,N,67.000000010.577000,W,2,10,0.6,791.6,M,-32.8,M,,*5C
$SDDBT,9.000000,f,2.740000,M,1.500000,F*3A
$GPGGA,123689.000000,18.00000001.418000,N,67.000000010.567000,W,2,10,0.6,791.6,M,-32.8,M,,*51
$SDDBT,6.000000,f,1.830000,M,1.000000,F*3B
$GPGGA,123690.000000,18.00000001.393000,N,67.000000010.551000,W,2,10,0.6,791.6,M,-32.8,M,,*58
$SDDBT,14.000000,f,4.270000,M,2.330000,F*
$GPGGA,123691.000000,18.00000001.369000,N,67.000000010.541000,W,2,10,0.6,791.6,M,-32.8,M,,*5D
$SDDBT,14.000000,f,4.270000,M,2.330000,F*
$GPGGA,123692.000000,18.00000001.344000,N,67.000000010.539000,W,2,10,0.6,791.6,M,-32.8,M,,*5E
$SDDBT,14.000000,f,4.270000,M,2.330000,F*
$GPGGA,123693.000000,18.00000001.315000,N,67.000000010.533000,W,2,10,0.6,791.6,M,-32.8,M,,*51
$SDDBT,14.000000,f,4.270000,M,2.330000,F*
$GPGGA,123694.000000,18.00000001.278000,N,67.000000010.528000,W,2,10,0.6,791.6,M,-32.8,M,,*56
$SDDBT,13.000000,f,3.960000,M,2.170000,F*C
$GPGGA,123695.000000,18.00000001.256000,N,67.000000010.528000,W,2,10,0.6,791.6,M,-32.8,M,,*5B
$SDDBT,13.000000,f,3.960000,M,2.170000,F*C
$GPGGA,123696.000000,18.00000001.217000,N,67.000000010.528000,W,2,10,0.6,791.6,M,-32.8,M,,*5D
$SDDBT,13.000000,f,3.960000,M,2.170000,F*C
$GPGGA,123697.000000,18.00000001.185000,N,67.000000010.526000,W,2,10,0.6,791.6,M,-32.8,M,,*5A
$SDDBT,12.000000,f,3.660000,M,2.000000,F*4
$GPGGA,123698.000000,18.00000001.153000,N,67.000000010.523000,W,2,10,0.6,791.6,M,-32.8,M,,*5B
$SDDBT,12.000000,f,3.660000,M,2.000000,F*4
$GPGGA,123699.000000,18.00000001.112000,N,67.000000010.523000,W,2,10,0.6,791.6,M,-32.8,M,,*5F
$SDDBT,12.000000,f,3.660000,M,2.000000,F*4
$GPGGA,123700.000000,18.00000001.077000,N,67.000000010.531000,W,2,10,0.6,791.6,M,-32.8,M,,*5F
$SDDBT,13.000000,f,3.960000,M,2.170000,F*C
$GPGGA,123701.000000,18.00000001.043000,N,67.000000010.531000,W,2,10,0.6,791.6,M,-32.8,M,,*59
$SDDBT,12.000000,f,3.660000,M,2.000000,F*4
$GPGGA,123702.000000,18.00000001.011000,N,67.000000010.539000,W,2,10,0.6,791.6,M,-32.8,M,,*55
$SDDBT,12.000000,f,3.660000,M,2.000000,F*4
$GPGGA,123703.000000,18.00000000.982000,N,67.000000010.544000,W,2,10,0.6,791.6,M,-32.8,M,,*5C
$SDDBT,12.000000,f,3.660000,M,2.000000,F*4
$GPGGA,123704.000000,18.00000000.950000,N,67.000000010.549000,W,2,10,0.6,791.6,M,-32.8,M,,*59
$SDDBT,10.000000,f,3.050000,M,1.670000,F*1
$GPGGA,123705.000000,18.00000000.921000,N,67.000000010.559000,W,2,10,0.6,791.6,M,-32.8,M,,*5F
$SDDBT,9.000000,f,2.740000,M,1.500000,F*3A
$GPGGA,123706.000000,18.00000000.891000,N,67.000000010.562000,W,2,10,0.6,791.6,M,-32.8,M,,*5E
$SDDBT,11.000000,f,3.350000,M,1.830000,F*9
$GPGGA,123707.000000,18.00000000.864000,N,67.000000010.564000,W,2,10,0.6,791.6,M,-32.8,M,,*53
$SDDBT,12.000000,f,3.660000,M,2.000000,F*4
$GPGGA,123708.000000,18.00000000.840000,N,67.000000010.575000,W,2,10,0.6,791.6,M,-32.8,M,,*5A
$SDDBT,12.000000,f,3.660000,M,2.000000,F*4
$GPGGA,123709.000000,18.00000000.806000,N,67.000000010.593000,W,2,10,0.6,791.6,M,-32.8,M,,*51
$SDDBT,10.000000,f,3.050000,M,1.670000,F*1
$GPGGA,123710.000000,18.00000000.781000,N,67.000000010.600000,W,2,10,0.6,791.6,M,-32.8,M,,*50
$SDDBT,10.000000,f,3.050000,M,1.670000,F*1
$GPGGA,123711.000000,18.00000000.759000,N,67.000000010.621000,W,2,10,0.6,791.6,M,-32.8,M,,*57
$SDDBT,11.000000,f,3.350000,M,1.830000,F*9
$GPGGA,123712.000000,18.00000000.735000,N,67.000000010.639000,W,2,10,0.6,791.6,M,-32.8,M,,*57
$SDDBT,11.000000,f,3.350000,M,1.830000,F*9
$GPGGA,123713.000000,18.00000000.703000,N,67.000000010.665000,W,2,10,0.6,791.6,M,-32.8,M,,*5A
$SDDBT,11.000000,f,3.350000,M,1.830000,F*9
$GPGGA,123714.000000,18.00000000.688000,N,67.000000010.680000,W,2,10,0.6,791.6,M,-32.8,M,,*54
$SDDBT,13.000000,f,3.960000,M,2.170000,F*C
$GPGGA,123715.000000,18.00000000.688000,N,67.000000010.704000,W,2,10,0.6,791.6,M,-32.8,M,,*58
$SDDBT,13.000000,f,3.960000,M,2.170000,F*C
$GPGGA,123716.000000,18.00000000.703000,N,67.000000010.689000,W,2,10,0.6,791.6,M,-32.8,M,,*5D
$SDDBT,15.000000,f,4.570000,M,2.500000,F*3
$GPGGA,123717.000000,18.00000000.735000,N,67.000000010.663000,W,2,10,0.6,791.6,M,-32.8,M,,*5D
$SDDBT,12.000000,f,3.660000,M,2.000000,F*4
$GPGGA,123718.000000,18.00000000.759000,N,67.000000010.645000,W,2,10,0.6,791.6,M,-32.8,M,,*5C
$SDDBT,11.000000,f,3.350000,M,1.830000,F*9
$GPGGA,123719.000000,18.00000000.781000,N,67.000000010.624000,W,2,10,0.6,791.6,M,-32.8,M,,*5F
$SDDBT,11.000000,f,3.350000,M,1.830000,F*9
$GPGGA,123720.000000,18.00000000.806000,N,67.000000010.617000,W,2,10,0.6,791.6,M,-32.8,M,,*55
$SDDBT,12.000000,f,3.660000,M,2.000000,F*4
$GPGGA,123721.000000,18.00000000.840000,N,67.000000010.599000,W,2,10,0.6,791.6,M,-32.8,M,,*53
$SDDBT,12.000000,f,3.660000,M,2.000000,F*4
$GPGGA,123722.000000,18.00000000.864000,N,67.000000010.588000,W,2,10,0.6,791.6,M,-32.8,M,,*56
$SDDBT,12.000000,f,3.660000,M,2.000000,F*4
$GPGGA,123723.000000,18.00000000.891000,N,67.000000010.586000,W,2,10,0.6,791.6,M,-32.8,M,,*53
$SDDBT,12.000000,f,3.660000,M,2.000000,F*4
$GPGGA,123724.000000,18.00000000.921000,N,67.000000010.583000,W,2,10,0.6,791.6,M,-32.8,M,,*5B
$SDDBT,12.000000,f,3.660000,M,2.000000,F*4
$GPGGA,123725.000000,18.00000000.950000,N,67.000000010.573000,W,2,10,0.6,791.6,M,-32.8,M,,*53
$SDDBT,13.000000,f,3.960000,M,2.170000,F*C
$GPGGA,123726.000000,18.00000000.982000,N,67.000000010.568000,W,2,10,0.6,791.6,M,-32.8,M,,*55
$SDDBT,13.000000,f,3.960000,M,2.170000,F*C
$GPGGA,123727.000000,18.00000001.011000,N,67.000000010.563000,W,2,10,0.6,791.6,M,-32.8,M,,*5D
$SDDBT,12.000000,f,3.660000,M,2.000000,F*4
$GPGGA,123728.000000,18.00000001.043000,N,67.000000010.555000,W,2,10,0.6,791.6,M,-32.8,M,,*50
$SDDBT,13.000000,f,3.960000,M,2.170000,F*C
$GPGGA,123729.000000,18.00000001.077000,N,67.000000010.555000,W,2,10,0.6,791.6,M,-32.8,M,,*56
$SDDBT,13.000000,f,3.960000,M,2.170000,F*C
$GPGGA,123730.000000,18.00000001.112000,N,67.000000010.547000,W,2,10,0.6,791.6,M,-32.8,M,,*5F
$SDDBT,13.000000,f,3.960000,M,2.170000,F*C
$GPGGA,123731.000000,18.00000001.153000,N,67.000000010.547000,W,2,10,0.6,791.6,M,-32.8,M,,*5B
$SDDBT,12.000000,f,3.660000,M,2.000000,F*4
$GPGGA,123732.000000,18.00000001.185000,N,67.000000010.550000,W,2,10,0.6,791.6,M,-32.8,M,,*55
$SDDBT,13.000000,f,3.960000,M,2.170000,F*C
$GPGGA,123733.000000,18.00000001.217000,N,67.000000010.552000,W,2,10,0.6,791.6,M,-32.8,M,,*5E
$SDDBT,13.000000,f,3.960000,M,2.170000,F*C
$GPGGA,123734.000000,18.00000001.256000,N,67.000000010.552000,W,2,10,0.6,791.6,M,-32.8,M,,*5C
$SDDBT,13.000000,f,3.960000,M,2.170000,F*C
$GPGGA,123735.000000,18.00000001.278000,N,67.000000010.552000,W,2,10,0.6,791.6,M,-32.8,M,,*51
$SDDBT,13.000000,f,3.960000,M,2.170000,F*C
$GPGGA,123736.000000,18.00000001.315000,N,67.000000010.557000,W,2,10,0.6,791.6,M,-32.8,M,,*5D
$SDDBT,14.000000,f,4.270000,M,2.330000,F*
$GPGGA,123737.000000,18.00000001.344000,N,67.000000010.563000,W,2,10,0.6,791.6,M,-32.8,M,,*5F
$SDDBT,14.000000,f,4.270000,M,2.330000,F*
$GPGGA,123738.000000,18.00000001.369000,N,67.000000010.565000,W,2,10,0.6,791.6,M,-32.8,M,,*59
$SDDBT,14.000000,f,4.270000,M,2.330000,F*
$GPGGA,123739.000000,18.00000001.393000,N,67.000000010.575000,W,2,10,0.6,791.6,M,-32.8,M,,*5C
$SDDBT,13.000000,f,3.960000,M,2.170000,F*C
$GPGGA,123740.000000,18.00000001.418000,N,67.000000010.591000,W,2,10,0.6,791.6,M,-32.8,M,,*5C
$SDDBT,10.000000,f,3.050000,M,1.670000,F*1
$GPGGA,123741.000000,18.00000001.440000,N,67.000000010.601000,W,2,10,0.6,791.6,M,-32.8,M,,*5A
$SDDBT,14.000000,f,4.270000,M,2.330000,F*
$GPGGA,123742.000000,18.00000001.459000,N,67.000000010.611000,W,2,10,0.6,791.6,M,-32.8,M,,*50
$SDDBT,13.000000,f,3.960000,M,2.170000,F*C
$GPGGA,123743.000000,18.00000001.459000,N,67.000000010.635000,W,2,10,0.6,791.6,M,-32.8,M,,*57
$SDDBT,13.000000,f,3.960000,M,2.170000,F*C
$GPGGA,123744.000000,18.00000001.440000,N,67.000000010.625000,W,2,10,0.6,791.6,M,-32.8,M,,*59
$SDDBT,13.000000,f,3.960000,M,2.170000,F*C
$GPGGA,123745.000000,18.00000001.418000,N,67.000000010.615000,W,2,10,0.6,791.6,M,-32.8,M,,*56
$SDDBT,14.000000,f,4.270000,M,2.330000,F*
$GPGGA,123746.000000,18.00000001.393000,N,67.000000010.599000,W,2,10,0.6,791.6,M,-32.8,M,,*56
$SDDBT,15.000000,f,4.570000,M,2.500000,F*3
$GPGGA,123747.000000,18.00000001.369000,N,67.000000010.589000,W,2,10,0.6,791.6,M,-32.8,M,,*53
$SDDBT,14.000000,f,4.270000,M,2.330000,F*
$GPGGA,123748.000000,18.00000001.344000,N,67.000000010.587000,W,2,10,0.6,791.6,M,-32.8,M,,*5D
$SDDBT,14.000000,f,4.270000,M,2.330000,F*
$GPGGA,123749.000000,18.00000001.315000,N,67.000000010.581000,W,2,10,0.6,791.6,M,-32.8,M,,*5E
$SDDBT,14.000000,f,4.270000,M,2.330000,F*
$GPGGA,123750.000000,18.00000001.278000,N,67.000000010.576000,W,2,10,0.6,791.6,M,-32.8,M,,*54
$SDDBT,14.000000,f,4.270000,M,2.330000,F*
$GPGGA,123751.000000,18.00000001.256000,N,67.000000010.576000,W,2,10,0.6,791.6,M,-32.8,M,,*59
$SDDBT,13.000000,f,3.960000,M,2.170000,F*C
$GPGGA,123752.000000,18.00000001.217000,N,67.000000010.576000,W,2,10,0.6,791.6,M,-32.8,M,,*5F
$SDDBT,13.000000,f,3.960000,M,2.170000,F*C
$GPGGA,123753.000000,18.00000001.185000,N,67.000000010.574000,W,2,10,0.6,791.6,M,-32.8,M,,*54
$SDDBT,13.000000,f,3.960000,M,2.170000,F*C
$GPGGA,123754.000000,18.00000001.153000,N,67.000000010.571000,W,2,10,0.6,791.6,M,-32.8,M,,*5D
$SDDBT,13.000000,f,3.960000,M,2.170000,F*C
$GPGGA,123755.000000,18.00000001.112000,N,67.000000010.571000,W,2,10,0.6,791.6,M,-32.8,M,,*59
$SDDBT,13.000000,f,3.960000,M,2.170000,F*C
$GPGGA,123756.000000,18.00000001.077000,N,67.000000010.579000,W,2,10,0.6,791.6,M,-32.8,M,,*50
$SDDBT,13.000000,f,3.960000,M,2.170000,F*C
$GPGGA,123757.000000,18.00000001.043000,N,67.000000010.579000,W,2,10,0.6,791.6,M,-32.8,M,,*56
$SDDBT,13.000000,f,3.960000,M,2.170000,F*C
$GPGGA,123758.000000,18.00000001.011000,N,67.000000010.587000,W,2,10,0.6,791.6,M,-32.8,M,,*5F
$SDDBT,13.000000,f,3.960000,M,2.170000,F*C
$GPGGA,123759.000000,18.00000000.982000,N,67.000000010.592000,W,2,10,0.6,791.6,M,-32.8,M,,*58
$SDDBT,13.000000,f,3.960000,M,2.170000,F*C
$GPGGA,123760.000000,18.00000000.950000,N,67.000000010.597000,W,2,10,0.6,791.6,M,-32.8,M,,*58
$SDDBT,12.000000,f,3.660000,M,2.000000,F*4
$GPGGA,123761.000000,18.00000000.921000,N,67.000000010.607000,W,2,10,0.6,791.6,M,-32.8,M,,*55
$SDDBT,12.000000,f,3.660000,M,2.000000,F*4
$GPGGA,123762.000000,18.00000000.891000,N,67.000000010.610000,W,2,10,0.6,791.6,M,-32.8,M,,*5A
$SDDBT,12.000000,f,3.660000,M,2.000000,F*4
$GPGGA,123763.000000,18.00000000.864000,N,67.000000010.612000,W,2,10,0.6,791.6,M,-32.8,M,,*53
$SDDBT,12.000000,f,3.660000,M,2.000000,F*4
$GPGGA,123764.000000,18.00000000.840000,N,67.000000010.623000,W,2,10,0.6,791.6,M,-32.8,M,,*50
$SDDBT,12.000000,f,3.660000,M,2.000000,F*4
$GPGGA,123765.000000,18.00000000.806000,N,67.000000010.641000,W,2,10,0.6,791.6,M,-32.8,M,,*57
$SDDBT,13.000000,f,3.960000,M,2.170000,F*C
$GPGGA,123766.000000,18.00000000.781000,N,67.000000010.648000,W,2,10,0.6,791.6,M,-32.8,M,,*5D
$SDDBT,12.000000,f,3.660000,M,2.000000,F*4
$GPGGA,123767.000000,18.00000000.759000,N,67.000000010.669000,W,2,10,0.6,791.6,M,-32.8,M,,*5A
$SDDBT,13.000000,f,3.960000,M,2.170000,F*C
$GPGGA,123768.000000,18.00000000.735000,N,67.000000010.687000,W,2,10,0.6,791.6,M,-32.8,M,,*5F
$SDDBT,14.000000,f,4.270000,M,2.330000,F*
$GPGGA,123769.000000,18.00000000.703000,N,67.000000010.713000,W,2,10,0.6,791.6,M,-32.8,M,,*57
$SDDBT,13.000000,f,3.960000,M,2.170000,F*C
$GPGGA,123770.000000,18.00000000.688000,N,67.000000010.728000,W,2,10,0.6,791.6,M,-32.8,M,,*55
$SDDBT,13.000000,f,3.960000,M,2.170000,F*C
$GPGGA,123771.000000,18.00000000.688000,N,67.000000010.752000,W,2,10,0.6,791.6,M,-32.8,M,,*59
$SDDBT,12.000000,f,3.660000,M,2.000000,F*4
$GPGGA,123772.000000,18.00000000.703000,N,67.000000010.737000,W,2,10,0.6,791.6,M,-32.8,M,,*5B
$SDDBT,13.000000,f,3.960000,M,2.170000,F*C
$GPGGA,123773.000000,18.00000000.735000,N,67.000000010.711000,W,2,10,0.6,791.6,M,-32.8,M,,*5B
$SDDBT,14.000000,f,4.270000,M,2.330000,F*
$GPGGA,123774.000000,18.00000000.759000,N,67.000000010.693000,W,2,10,0.6,791.6,M,-32.8,M,,*5D
$SDDBT,13.000000,f,3.960000,M,2.170000,F*C
$GPGGA,123775.000000,18.00000000.781000,N,67.000000010.672000,W,2,10,0.6,791.6,M,-32.8,M,,*56
$SDDBT,14.000000,f,4.270000,M,2.330000,F*
$GPGGA,123776.000000,18.00000000.806000,N,67.000000010.665000,W,2,10,0.6,791.6,M,-32.8,M,,*53
$SDDBT,14.000000,f,4.270000,M,2.330000,F*
$GPGGA,123777.000000,18.00000000.840000,N,67.000000010.647000,W,2,10,0.6,791.6,M,-32.8,M,,*50
$SDDBT,13.000000,f,3.960000,M,2.170000,F*C
$GPGGA,123778.000000,18.00000000.864000,N,67.000000010.636000,W,2,10,0.6,791.6,M,-32.8,M,,*5F
$SDDBT,13.000000,f,3.960000,M,2.170000,F*C
$GPGGA,123779.000000,18.00000000.891000,N,67.000000010.634000,W,2,10,0.6,791.6,M,-32.8,M,,*56
$SDDBT,12.000000,f,3.660000,M,2.000000,F*4
$GPGGA,123780.000000,18.00000000.921000,N,67.000000010.631000,W,2,10,0.6,791.6,M,-32.8,M,,*5F
$SDDBT,13.000000,f,3.960000,M,2.170000,F*C
$GPGGA,123781.000000,18.00000000.950000,N,67.000000010.621000,W,2,10,0.6,791.6,M,-32.8,M,,*59
$SDDBT,13.000000,f,3.960000,M,2.170000,F*C
$GPGGA,123782.000000,18.00000000.982000,N,67.000000010.616000,W,2,10,0.6,791.6,M,-32.8,M,,*51
$SDDBT,13.000000,f,3.960000,M,2.170000,F*C
$GPGGA,123783.000000,18.00000001.011000,N,67.000000010.611000,W,2,10,0.6,791.6,M,-32.8,M,,*55
$SDDBT,13.000000,f,3.960000,M,2.170000,F*C
$GPGGA,123784.000000,18.00000001.043000,N,67.000000010.603000,W,2,10,0.6,791.6,M,-32.8,M,,*56
$SDDBT,13.000000,f,3.960000,M,2.170000,F*C
$GPGGA,123785.000000,18.00000001.077000,N,67.000000010.603000,W,2,10,0.6,791.6,M,-32.8,M,,*50
$SDDBT,13.000000,f,3.960000,M,2.170000,F*C
$GPGGA,123786.000000,18.00000001.112000,N,67.000000010.595000,W,2,10,0.6,791.6,M,-32.8,M,,*5D
$SDDBT,13.000000,f,3.960000,M,2.170000,F*C
$GPGGA,123787.000000,18.00000001.153000,N,67.000000010.595000,W,2,10,0.6,791.6,M,-32.8,M,,*59
$SDDBT,13.000000,f,3.960000,M,2.170000,F*C
$GPGGA,123788.000000,18.00000001.185000,N,67.000000010.598000,W,2,10,0.6,791.6,M,-32.8,M,,*50
$SDDBT,13.000000,f,3.960000,M,2.170000,F*C
$GPGGA,123789.000000,18.00000001.217000,N,67.000000010.600000,W,2,10,0.6,791.6,M,-32.8,M,,*5B
$SDDBT,13.000000,f,3.960000,M,2.170000,F*C
$GPGGA,123790.000000,18.00000001.256000,N,67.000000010.600000,W,2,10,0.6,791.6,M,-32.8,M,,*56
$SDDBT,13.000000,f,3.960000,M,2.170000,F*C
$GPGGA,123791.000000,18.00000001.278000,N,67.000000010.600000,W,2,10,0.6,791.6,M,-32.8,M,,*5B
$SDDBT,14.000000,f,4.270000,M,2.330000,F*
$GPGGA,123792.000000,18.00000001.315000,N,67.000000010.605000,W,2,10,0.6,791.6,M,-32.8,M,,*57
$SDDBT,13.000000,f,3.960000,M,2.170000,F*C
$GPGGA,123793.000000,18.00000001.344000,N,67.000000010.611000,W,2,10,0.6,791.6,M,-32.8,M,,*57
$SDDBT,14.000000,f,4.270000,M,2.330000,F*
$GPGGA,123794.000000,18.00000001.369000,N,67.000000010.613000,W,2,10,0.6,791.6,M,-32.8,M,,*5D
$SDDBT,14.000000,f,4.270000,M,2.330000,F*
$GPGGA,123795.000000,18.00000001.393000,N,67.000000010.623000,W,2,10,0.6,791.6,M,-32.8,M,,*5A
$SDDBT,14.000000,f,4.270000,M,2.330000,F*
$GPGGA,123796.000000,18.00000001.418000,N,67.000000010.639000,W,2,10,0.6,791.6,M,-32.8,M,,*56
$SDDBT,14.000000,f,4.270000,M,2.330000,F*
$GPGGA,123797.000000,18.00000001.440000,N,67.000000010.649000,W,2,10,0.6,791.6,M,-32.8,M,,*5D
$SDDBT,14.000000,f,4.270000,M,2.330000,F*
$GPGGA,123798.000000,18.00000001.459000,N,67.000000010.659000,W,2,10,0.6,791.6,M,-32.8,M,,*5B
$SDDBT,13.000000,f,3.960000,M,2.170000,F*C
$GPGGA,123799.000000,18.00000001.459000,N,67.000000010.683000,W,2,10,0.6,791.6,M,-32.8,M,,*5D
$SDDBT,13.000000,f,3.960000,M,2.170000,F*C
$GPGGA,123800.000000,18.00000001.440000,N,67.000000010.673000,W,2,10,0.6,791.6,M,-32.8,M,,*55
$SDDBT,14.000000,f,4.270000,M,2.330000,F*
$GPGGA,123801.000000,18.00000001.418000,N,67.000000010.663000,W,2,10,0.6,791.6,M,-32.8,M,,*58
$SDDBT,14.000000,f,4.270000,M,2.330000,F*
$GPGGA,123802.000000,18.00000001.393000,N,67.000000010.647000,W,2,10,0.6,791.6,M,-32.8,M,,*59
$SDDBT,14.000000,f,4.270000,M,2.330000,F*
$GPGGA,123803.000000,18.00000001.369000,N,67.000000010.637000,W,2,10,0.6,791.6,M,-32.8,M,,*5A
$SDDBT,15.000000,f,4.570000,M,2.500000,F*3
$GPGGA,123804.000000,18.00000001.344000,N,67.000000010.635000,W,2,10,0.6,791.6,M,-32.8,M,,*50
$SDDBT,13.000000,f,3.960000,M,2.170000,F*C
$GPGGA,123805.000000,18.00000001.315000,N,67.000000010.629000,W,2,10,0.6,791.6,M,-32.8,M,,*58
$SDDBT,14.000000,f,4.270000,M,2.330000,F*
$GPGGA,123806.000000,18.00000001.278000,N,67.000000010.624000,W,2,10,0.6,791.6,M,-32.8,M,,*5C
$SDDBT,14.000000,f,4.270000,M,2.330000,F*
$GPGGA,123807.000000,18.00000001.256000,N,67.000000010.624000,W,2,10,0.6,791.6,M,-32.8,M,,*51
$SDDBT,14.000000,f,4.270000,M,2.330000,F*
$GPGGA,123808.000000,18.00000001.217000,N,67.000000010.624000,W,2,10,0.6,791.6,M,-32.8,M,,*5B
$SDDBT,13.000000,f,3.960000,M,2.170000,F*C
$GPGGA,123809.000000,18.00000001.185000,N,67.000000010.622000,W,2,10,0.6,791.6,M,-32.8,M,,*54
$SDDBT,13.000000,f,3.960000,M,2.170000,F*C
$GPGGA,123810.000000,18.00000001.153000,N,67.000000010.619000,W,2,10,0.6,791.6,M,-32.8,M,,*5F
$SDDBT,13.000000,f,3.960000,M,2.170000,F*C
$GPGGA,123811.000000,18.00000001.112000,N,67.000000010.619000,W,2,10,0.6,791.6,M,-32.8,M,,*5B
$SDDBT,13.000000,f,3.960000,M,2.170000,F*C
$GPGGA,123812.000000,18.00000001.077000,N,67.000000010.627000,W,2,10,0.6,791.6,M,-32.8,M,,*57
$SDDBT,13.000000,f,3.960000,M,2.170000,F*C
$GPGGA,123813.000000,18.00000001.043000,N,67.000000010.627000,W,2,10,0.6,791.6,M,-32.8,M,,*51
$SDDBT,14.000000,f,4.270000,M,2.330000,F*
$GPGGA,123814.000000,18.00000001.011000,N,67.000000010.635000,W,2,10,0.6,791.6,M,-32.8,M,,*52
$SDDBT,14.000000,f,4.270000,M,2.330000,F*
$GPGGA,123815.000000,18.00000000.982000,N,67.000000010.640000,W,2,10,0.6,791.6,M,-32.8,M,,*53
$SDDBT,14.000000,f,4.270000,M,2.330000,F*
$GPGGA,123816.000000,18.00000000.950000,N,67.000000010.645000,W,2,10,0.6,791.6,M,-32.8,M,,*5A
$SDDBT,14.000000,f,4.270000,M,2.330000,F*
$GPGGA,123817.000000,18.00000000.921000,N,67.000000010.655000,W,2,10,0.6,791.6,M,-32.8,M,,*5C
$SDDBT,14.000000,f,4.270000,M,2.330000,F*
$GPGGA,123818.000000,18.00000000.891000,N,67.000000010.658000,W,2,10,0.6,791.6,M,-32.8,M,,*54
$SDDBT,13.000000,f,3.960000,M,2.170000,F*C
$GPGGA,123819.000000,18.00000000.864000,N,67.000000010.660000,W,2,10,0.6,791.6,M,-32.8,M,,*54
$SDDBT,13.000000,f,3.960000,M,2.170000,F*C
$GPGGA,123820.000000,18.00000000.840000,N,67.000000010.671000,W,2,10,0.6,791.6,M,-32.8,M,,*58
$SDDBT,13.000000,f,3.960000,M,2.170000,F*C
$GPGGA,123821.000000,18.00000000.806000,N,67.000000010.689000,W,2,10,0.6,791.6,M,-32.8,M,,*5C
$SDDBT,14.000000,f,4.270000,M,2.330000,F*
$GPGGA,123822.000000,18.00000000.781000,N,67.000000010.696000,W,2,10,0.6,791.6,M,-32.8,M,,*51
$SDDBT,14.000000,f,4.270000,M,2.330000,F*
$GPGGA,123823.000000,18.00000000.759000,N,67.000000010.717000,W,2,10,0.6,791.6,M,-32.8,M,,*5D
$SDDBT,14.000000,f,4.270000,M,2.330000,F*
$GPGGA,123824.000000,18.00000000.735000,N,67.000000010.735000,W,2,10,0.6,791.6,M,-32.8,M,,*50
$SDDBT,14.000000,f,4.270000,M,2.330000,F*
$GPGGA,123825.000000,18.00000000.703000,N,67.000000010.761000,W,2,10,0.6,791.6,M,-32.8,M,,*55
$SDDBT,13.000000,f,3.960000,M,2.170000,F*C
$GPGGA,123826.000000,18.00000000.688000,N,67.000000010.776000,W,2,10,0.6,791.6,M,-32.8,M,,*52
$SDDBT,14.000000,f,4.270000,M,2.330000,F*
$GPGGA,123827.000000,18.00000000.688000,N,67.000000010.800000,W,2,10,0.6,791.6,M,-32.8,M,,*5D
$SDDBT,15.000000,f,4.570000,M,2.500000,F*3
$GPGGA,123828.000000,18.00000000.703000,N,67.000000010.785000,W,2,10,0.6,791.6,M,-32.8,M,,*52
$SDDBT,15.000000,f,4.570000,M,2.500000,F*3
$GPGGA,123829.000000,18.00000000.735000,N,67.000000010.759000,W,2,10,0.6,791.6,M,-32.8,M,,*57
$SDDBT,15.000000,f,4.570000,M,2.500000,F*3
$GPGGA,123830.000000,18.00000000.759000,N,67.000000010.741000,W,2,10,0.6,791.6,M,-32.8,M,,*5C
$SDDBT,14.000000,f,4.270000,M,2.330000,F*
$GPGGA,123831.000000,18.00000000.781000,N,67.000000010.720000,W,2,10,0.6,791.6,M,-32.8,M,,*5F
$SDDBT,14.000000,f,4.270000,M,2.330000,F*
$GPGGA,123832.000000,18.00000000.806000,N,67.000000010.713000,W,2,10,0.6,791.6,M,-32.8,M,,*5C
$SDDBT,14.000000,f,4.270000,M,2.330000,F*
$GPGGA,123833.000000,18.00000000.840000,N,67.000000010.695000,W,2,10,0.6,791.6,M,-32.8,M,,*50
$SDDBT,14.000000,f,4.270000,M,2.330000,F*
$GPGGA,123834.000000,18.00000000.864000,N,67.000000010.684000,W,2,10,0.6,791.6,M,-32.8,M,,*51
$SDDBT,13.000000,f,3.960000,M,2.170000,F*C
$GPGGA,123835.000000,18.00000000.891000,N,67.000000010.682000,W,2,10,0.6,791.6,M,-32.8,M,,*5C
$SDDBT,13.000000,f,3.960000,M,2.170000,F*C
$GPGGA,123836.000000,18.00000000.921000,N,67.000000010.679000,W,2,10,0.6,791.6,M,-32.8,M,,*51
$SDDBT,14.000000,f,4.270000,M,2.330000,F*
$GPGGA,123837.000000,18.00000000.950000,N,67.000000010.669000,W,2,10,0.6,791.6,M,-32.8,M,,*57
$SDDBT,14.000000,f,4.270000,M,2.330000,F*
$GPGGA,123838.000000,18.00000000.982000,N,67.000000010.664000,W,2,10,0.6,791.6,M,-32.8,M,,*5A
$SDDBT,14.000000,f,4.270000,M,2.330000,F*
$GPGGA,123839.000000,18.00000001.011000,N,67.000000010.659000,W,2,10,0.6,791.6,M,-32.8,M,,*57
$SDDBT,14.000000,f,4.270000,M,2.330000,F*
$GPGGA,123840.000000,18.00000001.043000,N,67.000000010.651000,W,2,10,0.6,791.6,M,-32.8,M,,*56
$SDDBT,14.000000,f,4.270000,M,2.330000,F*
$GPGGA,123841.000000,18.00000001.077000,N,67.000000010.651000,W,2,10,0.6,791.6,M,-32.8,M,,*50
$SDDBT,14.000000,f,4.270000,M,2.330000,F*
$GPGGA,123842.000000,18.00000001.112000,N,67.000000010.643000,W,2,10,0.6,791.6,M,-32.8,M,,*52
$SDDBT,13.000000,f,3.960000,M,2.170000,F*C
$GPGGA,123843.000000,18.00000001.153000,N,67.000000010.643000,W,2,10,0.6,791.6,M,-32.8,M,,*56
$SDDBT,13.000000,f,3.960000,M,2.170000,F*C
$GPGGA,123844.000000,18.00000001.185000,N,67.000000010.646000,W,2,10,0.6,791.6,M,-32.8,M,,*5F
$SDDBT,14.000000,f,4.270000,M,2.330000,F*
$GPGGA,123845.000000,18.00000001.217000,N,67.000000010.648000,W,2,10,0.6,791.6,M,-32.8,M,,*58
$SDDBT,14.000000,f,4.270000,M,2.330000,F*
$GPGGA,123846.000000,18.00000001.256000,N,67.000000010.648000,W,2,10,0.6,791.6,M,-32.8,M,,*5E
$SDDBT,14.000000,f,4.270000,M,2.330000,F*
$GPGGA,123847.000000,18.00000001.278000,N,67.000000010.648000,W,2,10,0.6,791.6,M,-32.8,M,,*53
$SDDBT,14.000000,f,4.270000,M,2.330000,F*
$GPGGA,123848.000000,18.00000001.315000,N,67.000000010.653000,W,2,10,0.6,791.6,M,-32.8,M,,*5C
$SDDBT,14.000000,f,4.270000,M,2.330000,F*
$GPGGA,123849.000000,18.00000001.344000,N,67.000000010.659000,W,2,10,0.6,791.6,M,-32.8,M,,*53
$SDDBT,14.000000,f,4.270000,M,2.330000,F*
$GPGGA,123850.000000,18.00000001.369000,N,67.000000010.661000,W,2,10,0.6,791.6,M,-32.8,M,,*5F
$SDDBT,14.000000,f,4.270000,M,2.330000,F*
$GPGGA,123851.000000,18.00000001.393000,N,67.000000010.671000,W,2,10,0.6,791.6,M,-32.8,M,,*5A
$SDDBT,14.000000,f,4.270000,M,2.330000,F*
$GPGGA,123852.000000,18.00000001.418000,N,67.000000010.687000,W,2,10,0.6,791.6,M,-32.8,M,,*54
$SDDBT,14.000000,f,4.270000,M,2.330000,F*
$GPGGA,123853.000000,18.00000001.440000,N,67.000000010.697000,W,2,10,0.6,791.6,M,-32.8,M,,*59
$SDDBT,14.000000,f,4.270000,M,2.330000,F*
$GPGGA,123854.000000,18.00000001.459000,N,67.000000010.707000,W,2,10,0.6,791.6,M,-32.8,M,,*5E
$SDDBT,14.000000,f,4.270000,M,2.330000,F*
$GPGGA,123855.000000,18.00000001.459000,N,67.000000010.731000,W,2,10,0.6,791.6,M,-32.8,M,,*5A
$SDDBT,14.000000,f,4.270000,M,2.330000,F*
$GPGGA,123856.000000,18.00000001.440000,N,67.000000010.721000,W,2,10,0.6,791.6,M,-32.8,M,,*50
$SDDBT,15.000000,f,4.570000,M,2.500000,F*3
$GPGGA,123857.000000,18.00000001.418000,N,67.000000010.711000,W,2,10,0.6,791.6,M,-32.8,M,,*5F
$SDDBT,14.000000,f,4.270000,M,2.330000,F*
$GPGGA,123858.000000,18.00000001.393000,N,67.000000010.695000,W,2,10,0.6,791.6,M,-32.8,M,,*59
$SDDBT,14.000000,f,4.270000,M,2.330000,F*
$GPGGA,123859.000000,18.00000001.369000,N,67.000000010.685000,W,2,10,0.6,791.6,M,-32.8,M,,*5C
$SDDBT,14.000000,f,4.270000,M,2.330000,F*
$GPGGA,123860.000000,18.00000001.344000,N,67.000000010.683000,W,2,10,0.6,791.6,M,-32.8,M,,*5F
$SDDBT,14.000000,f,4.270000,M,2.330000,F*
$GPGGA,123861.000000,18.00000001.315000,N,67.000000010.677000,W,2,10,0.6,791.6,M,-32.8,M,,*51
$SDDBT,14.000000,f,4.270000,M,2.330000,F*
$GPGGA,123862.000000,18.00000001.278000,N,67.000000010.672000,W,2,10,0.6,791.6,M,-32.8,M,,*5D
$SDDBT,14.000000,f,4.270000,M,2.330000,F*
$GPGGA,123863.000000,18.00000001.256000,N,67.000000010.672000,W,2,10,0.6,791.6,M,-32.8,M,,*50
$SDDBT,14.000000,f,4.270000,M,2.330000,F*
$GPGGA,123864.000000,18.00000001.217000,N,67.000000010.672000,W,2,10,0.6,791.6,M,-32.8,M,,*52
$SDDBT,14.000000,f,4.270000,M,2.330000,F*
$GPGGA,123865.000000,18.00000001.185000,N,67.000000010.670000,W,2,10,0.6,791.6,M,-32.8,M,,*59
$SDDBT,14.000000,f,4.270000,M,2.330000,F*
$GPGGA,123866.000000,18.00000001.153000,N,67.000000010.667000,W,2,10,0.6,791.6,M,-32.8,M,,*57
$SDDBT,14.000000,f,4.270000,M,2.330000,F*
$GPGGA,123867.000000,18.00000001.112000,N,67.000000010.667000,W,2,10,0.6,791.6,M,-32.8,M,,*53
$SDDBT,14.000000,f,4.270000,M,2.330000,F*
$GPGGA,123868.000000,18.00000001.077000,N,67.000000010.675000,W,2,10,0.6,791.6,M,-32.8,M,,*5D
$SDDBT,14.000000,f,4.270000,M,2.330000,F*
$GPGGA,123869.000000,18.00000001.043000,N,67.000000010.675000,W,2,10,0.6,791.6,M,-32.8,M,,*5B
$SDDBT,14.000000,f,4.270000,M,2.330000,F*
$GPGGA,123870.000000,18.00000001.011000,N,67.000000010.683000,W,2,10,0.6,791.6,M,-32.8,M,,*5D
$SDDBT,14.000000,f,4.270000,M,2.330000,F*
$GPGGA,123871.000000,18.00000000.982000,N,67.000000010.688000,W,2,10,0.6,791.6,M,-32.8,M,,*55
$SDDBT,14.000000,f,4.270000,M,2.330000,F*
$GPGGA,123872.000000,18.00000000.950000,N,67.000000010.693000,W,2,10,0.6,791.6,M,-32.8,M,,*53
$SDDBT,14.000000,f,4.270000,M,2.330000,F*
$GPGGA,123873.000000,18.00000000.921000,N,67.000000010.703000,W,2,10,0.6,791.6,M,-32.8,M,,*5C
$SDDBT,14.000000,f,4.270000,M,2.330000,F*
$GPGGA,123874.000000,18.00000000.891000,N,67.000000010.706000,W,2,10,0.6,791.6,M,-32.8,M,,*54
$SDDBT,14.000000,f,4.270000,M,2.330000,F*
$GPGGA,123875.000000,18.00000000.864000,N,67.000000010.708000,W,2,10,0.6,791.6,M,-32.8,M,,*51
$SDDBT,14.000000,f,4.270000,M,2.330000,F*
$GPGGA,123876.000000,18.00000000.840000,N,67.000000010.719000,W,2,10,0.6,791.6,M,-32.8,M,,*54
$SDDBT,14.000000,f,4.270000,M,2.330000,F*
$GPGGA,123877.000000,18.00000000.806000,N,67.000000010.737000,W,2,10,0.6,791.6,M,-32.8,M,,*5B
$SDDBT,14.000000,f,4.270000,M,2.330000,F*
$GPGGA,123878.000000,18.00000000.781000,N,67.000000010.744000,W,2,10,0.6,791.6,M,-32.8,M,,*50
$SDDBT,14.000000,f,4.270000,M,2.330000,F*
$GPGGA,123879.000000,18.00000000.759000,N,67.000000010.765000,W,2,10,0.6,791.6,M,-32.8,M,,*57
$SDDBT,15.000000,f,4.570000,M,2.500000,F*3
$GPGGA,123880.000000,18.00000000.735000,N,67.000000010.783000,W,2,10,0.6,791.6,M,-32.8,M,,*53
$SDDBT,15.000000,f,4.570000,M,2.500000,F*3
$GPGGA,123881.000000,18.00000000.703000,N,67.000000010.809000,W,2,10,0.6,791.6,M,-32.8,M,,*5A
$SDDBT,15.000000,f,4.570000,M,2.500000,F*3
$GPGGA,123882.000000,18.00000000.688000,N,67.000000010.824000,W,2,10,0.6,791.6,M,-32.8,M,,*54
$SDDBT,16.000000,f,4.880000,M,2.670000,F*6
$GPGGA,123883.000000,18.00000000.688000,N,67.000000010.848000,W,2,10,0.6,791.6,M,-32.8,M,,*5F
$SDDBT,16.000000,f,4.880000,M,2.670000,F*6
$GPGGA,123884.000000,18.00000000.703000,N,67.000000010.833000,W,2,10,0.6,791.6,M,-32.8,M,,*56
$SDDBT,16.000000,f,4.880000,M,2.670000,F*6
$GPGGA,123885.000000,18.00000000.735000,N,67.000000010.807000,W,2,10,0.6,791.6,M,-32.8,M,,*55
$SDDBT,15.000000,f,4.570000,M,2.500000,F*3
$GPGGA,123886.000000,18.00000000.759000,N,67.000000010.789000,W,2,10,0.6,791.6,M,-32.8,M,,*55
$SDDBT,15.000000,f,4.570000,M,2.500000,F*3
$GPGGA,123887.000000,18.00000000.781000,N,67.000000010.768000,W,2,10,0.6,791.6,M,-32.8,M,,*5E
$SDDBT,15.000000,f,4.570000,M,2.500000,F*3
$GPGGA,123888.000000,18.00000000.806000,N,67.000000010.761000,W,2,10,0.6,791.6,M,-32.8,M,,*58
$SDDBT,15.000000,f,4.570000,M,2.500000,F*3
$GPGGA,123889.000000,18.00000000.840000,N,67.000000010.743000,W,2,10,0.6,791.6,M,-32.8,M,,*5B
$SDDBT,15.000000,f,4.570000,M,2.500000,F*3
$GPGGA,123890.000000,18.00000000.864000,N,67.000000010.732000,W,2,10,0.6,791.6,M,-32.8,M,,*53
$SDDBT,15.000000,f,4.570000,M,2.500000,F*3
$GPGGA,123891.000000,18.00000000.891000,N,67.000000010.730000,W,2,10,0.6,791.6,M,-32.8,M,,*5A
$SDDBT,15.000000,f,4.570000,M,2.500000,F*3
$GPGGA,123892.000000,18.00000000.921000,N,67.000000010.727000,W,2,10,0.6,791.6,M,-32.8,M,,*55
$SDDBT,15.000000,f,4.570000,M,2.500000,F*3
$GPGGA,123893.000000,18.00000000.950000,N,67.000000010.717000,W,2,10,0.6,791.6,M,-32.8,M,,*51
$SDDBT,15.000000,f,4.570000,M,2.500000,F*3
$GPGGA,123894.000000,18.00000000.982000,N,67.000000010.712000,W,2,10,0.6,791.6,M,-32.8,M,,*5C
$SDDBT,14.000000,f,4.270000,M,2.330000,F*
$GPGGA,123895.000000,18.00000001.011000,N,67.000000010.707000,W,2,10,0.6,791.6,M,-32.8,M,,*5B
$SDDBT,14.000000,f,4.270000,M,2.330000,F*
$GPGGA,123896.000000,18.00000001.043000,N,67.000000010.699000,W,2,10,0.6,791.6,M,-32.8,M,,*59
$SDDBT,14.000000,f,4.270000,M,2.330000,F*
$GPGGA,123897.000000,18.00000001.077000,N,67.000000010.699000,W,2,10,0.6,791.6,M,-32.8,M,,*5F
$SDDBT,14.000000,f,4.270000,M,2.330000,F*
$GPGGA,123898.000000,18.00000001.112000,N,67.000000010.691000,W,2,10,0.6,791.6,M,-32.8,M,,*5A
$SDDBT,14.000000,f,4.270000,M,2.330000,F*
$GPGGA,123899.000000,18.00000001.153000,N,67.000000010.691000,W,2,10,0.6,791.6,M,-32.8,M,,*5E
$SDDBT,14.000000,f,4.270000,M,2.330000,F*
$GPGGA,123900.000000,18.00000001.185000,N,67.000000010.694000,W,2,10,0.6,791.6,M,-32.8,M,,*51
$SDDBT,14.000000,f,4.270000,M,2.330000,F*
$GPGGA,123901.000000,18.00000001.217000,N,67.000000010.696000,W,2,10,0.6,791.6,M,-32.8,M,,*5A
$SDDBT,14.000000,f,4.270000,M,2.330000,F*
$GPGGA,123902.000000,18.00000001.256000,N,67.000000010.696000,W,2,10,0.6,791.6,M,-32.8,M,,*5C
$SDDBT,14.000000,f,4.270000,M,2.330000,F*
$GPGGA,123903.000000,18.00000001.278000,N,67.000000010.696000,W,2,10,0.6,791.6,M,-32.8,M,,*51
$SDDBT,14.000000,f,4.270000,M,2.330000,F*
$GPGGA,123904.000000,18.00000001.315000,N,67.000000010.701000,W,2,10,0.6,791.6,M,-32.8,M,,*53
$SDDBT,14.000000,f,4.270000,M,2.330000,F*
$GPGGA,123905.000000,18.00000001.344000,N,67.000000010.707000,W,2,10,0.6,791.6,M,-32.8,M,,*50
$SDDBT,15.000000,f,4.570000,M,2.500000,F*3
$GPGGA,123906.000000,18.00000001.369000,N,67.000000010.709000,W,2,10,0.6,791.6,M,-32.8,M,,*52
$SDDBT,15.000000,f,4.570000,M,2.500000,F*3
$GPGGA,123907.000000,18.00000001.393000,N,67.000000010.719000,W,2,10,0.6,791.6,M,-32.8,M,,*57
$SDDBT,15.000000,f,4.570000,M,2.500000,F*3
$GPGGA,123908.000000,18.00000001.418000,N,67.000000010.735000,W,2,10,0.6,791.6,M,-32.8,M,,*52
$SDDBT,15.000000,f,4.570000,M,2.500000,F*3
$GPGGA,123909.000000,18.00000001.440000,N,67.000000010.745000,W,2,10,0.6,791.6,M,-32.8,M,,*59
$SDDBT,15.000000,f,4.570000,M,2.500000,F*3
$GPGGA,123910.000000,18.00000001.459000,N,67.000000010.755000,W,2,10,0.6,791.6,M,-32.8,M,,*58
$SDDBT,15.000000,f,4.570000,M,2.500000,F*3
$GPGGA,123911.000000,18.00000001.459000,N,67.000000010.779000,W,2,10,0.6,791.6,M,-32.8,M,,*57
$SDDBT,15.000000,f,4.570000,M,2.500000,F*3
$GPGGA,123912.000000,18.00000001.440000,N,67.000000010.769000,W,2,10,0.6,791.6,M,-32.8,M,,*5D
$SDDBT,15.000000,f,4.570000,M,2.500000,F*3
$GPGGA,123913.000000,18.00000001.418000,N,67.000000010.759000,W,2,10,0.6,791.6,M,-32.8,M,,*52
$SDDBT,15.000000,f,4.570000,M,2.500000,F*3
$GPGGA,123914.000000,18.00000001.393000,N,67.000000010.743000,W,2,10,0.6,791.6,M,-32.8,M,,*5A
$SDDBT,15.000000,f,4.570000,M,2.500000,F*3
$GPGGA,123915.000000,18.00000001.369000,N,67.000000010.733000,W,2,10,0.6,791.6,M,-32.8,M,,*59
$SDDBT,15.000000,f,4.570000,M,2.500000,F*3
$GPGGA,123916.000000,18.00000001.344000,N,67.000000010.731000,W,2,10,0.6,791.6,M,-32.8,M,,*57
$SDDBT,15.000000,f,4.570000,M,2.500000,F*3
$GPGGA,123917.000000,18.00000001.315000,N,67.000000010.725000,W,2,10,0.6,791.6,M,-32.8,M,,*57
$SDDBT,15.000000,f,4.570000,M,2.500000,F*3
$GPGGA,123918.000000,18.00000001.278000,N,67.000000010.720000,W,2,10,0.6,791.6,M,-32.8,M,,*57
$SDDBT,15.000000,f,4.570000,M,2.500000,F*3
$GPGGA,123919.000000,18.00000001.256000,N,67.000000010.720000,W,2,10,0.6,791.6,M,-32.8,M,,*5A
$SDDBT,15.000000,f,4.570000,M,2.500000,F*3
$GPGGA,123920.000000,18.00000001.217000,N,67.000000010.720000,W,2,10,0.6,791.6,M,-32.8,M,,*55
$SDDBT,15.000000,f,4.570000,M,2.500000,F*3
$GPGGA,123921.000000,18.00000001.185000,N,67.000000010.718000,W,2,10,0.6,791.6,M,-32.8,M,,*57
$SDDBT,14.000000,f,4.270000,M,2.330000,F*
$GPGGA,123922.000000,18.00000001.153000,N,67.000000010.715000,W,2,10,0.6,791.6,M,-32.8,M,,*52
$SDDBT,14.000000,f,4.270000,M,2.330000,F*
$GPGGA,123923.000000,18.00000001.112000,N,67.000000010.715000,W,2,10,0.6,791.6,M,-32.8,M,,*56
$SDDBT,14.000000,f,4.270000,M,2.330000,F*
$GPGGA,123924.000000,18.00000001.077000,N,67.000000010.723000,W,2,10,0.6,791.6,M,-32.8,M,,*56
$SDDBT,15.000000,f,4.570000,M,2.500000,F*3
$GPGGA,123925.000000,18.00000001.043000,N,67.000000010.723000,W,2,10,0.6,791.6,M,-32.8,M,,*50
$SDDBT,14.000000,f,4.270000,M,2.330000,F*
$GPGGA,123926.000000,18.00000001.011000,N,67.000000010.731000,W,2,10,0.6,791.6,M,-32.8,M,,*57
$SDDBT,15.000000,f,4.570000,M,2.500000,F*3
$GPGGA,123927.000000,18.00000000.982000,N,67.000000010.736000,W,2,10,0.6,791.6,M,-32.8,M,,*53
$SDDBT,16.000000,f,4.880000,M,2.670000,F*6
$GPGGA,123928.000000,18.00000000.950000,N,67.000000010.741000,W,2,10,0.6,791.6,M,-32.8,M,,*53
$SDDBT,16.000000,f,4.880000,M,2.670000,F*6
$GPGGA,123929.000000,18.00000000.921000,N,67.000000010.751000,W,2,10,0.6,791.6,M,-32.8,M,,*55
$SDDBT,16.000000,f,4.880000,M,2.670000,F*6
$GPGGA,123930.000000,18.00000000.891000,N,67.000000010.754000,W,2,10,0.6,791.6,M,-32.8,M,,*52
$SDDBT,16.000000,f,4.880000,M,2.670000,F*6
$GPGGA,123931.000000,18.00000000.864000,N,67.000000010.756000,W,2,10,0.6,791.6,M,-32.8,M,,*5B
$SDDBT,15.000000,f,4.570000,M,2.500000,F*3
$GPGGA,123932.000000,18.00000000.840000,N,67.000000010.767000,W,2,10,0.6,791.6,M,-32.8,M,,*5C
$SDDBT,15.000000,f,4.570000,M,2.500000,F*3
$GPGGA,123933.000000,18.00000000.806000,N,67.000000010.785000,W,2,10,0.6,791.6,M,-32.8,M,,*53
$SDDBT,16.000000,f,4.880000,M,2.670000,F*6
$GPGGA,123934.000000,18.00000000.781000,N,67.000000010.792000,W,2,10,0.6,791.6,M,-32.8,M,,*52
$SDDBT,16.000000,f,4.880000,M,2.670000,F*6
$GPGGA,123935.000000,18.00000000.759000,N,67.000000010.813000,W,2,10,0.6,791.6,M,-32.8,M,,*50
$SDDBT,16.000000,f,4.880000,M,2.670000,F*6
$GPGGA,123936.000000,18.00000000.735000,N,67.000000010.831000,W,2,10,0.6,791.6,M,-32.8,M,,*59
$SDDBT,16.000000,f,4.880000,M,2.670000,F*6
$GPGGA,123937.000000,18.00000000.703000,N,67.000000010.857000,W,2,10,0.6,791.6,M,-32.8,M,,*5D
$SDDBT,16.000000,f,4.880000,M,2.670000,F*6
$GPGGA,123938.000000,18.00000000.688000,N,67.000000010.872000,W,2,10,0.6,791.6,M,-32.8,M,,*57
$SDDBT,16.000000,f,4.880000,M,2.670000,F*6
$GPGGA,123939.000000,18.00000000.688000,N,67.000000010.896000,W,2,10,0.6,791.6,M,-32.8,M,,*5C
$SDDBT,17.000000,f,5.180000,M,2.830000,F*5
$GPGGA,123940.000000,18.00000000.703000,N,67.000000010.881000,W,2,10,0.6,791.6,M,-32.8,M,,*56
$SDDBT,16.000000,f,4.880000,M,2.670000,F*6
$GPGGA,123941.000000,18.00000000.735000,N,67.000000010.855000,W,2,10,0.6,791.6,M,-32.8,M,,*5B
$SDDBT,16.000000,f,4.880000,M,2.670000,F*6
$GPGGA,123942.000000,18.00000000.759000,N,67.000000010.837000,W,2,10,0.6,791.6,M,-32.8,M,,*56
$SDDBT,17.000000,f,5.180000,M,2.830000,F*5
$GPGGA,123943.000000,18.00000000.781000,N,67.000000010.816000,W,2,10,0.6,791.6,M,-32.8,M,,*51
$SDDBT,16.000000,f,4.880000,M,2.670000,F*6
$GPGGA,123944.000000,18.00000000.806000,N,67.000000010.809000,W,2,10,0.6,791.6,M,-32.8,M,,*58
$SDDBT,16.000000,f,4.880000,M,2.670000,F*6
$GPGGA,123945.000000,18.00000000.840000,N,67.000000010.791000,W,2,10,0.6,791.6,M,-32.8,M,,*55
$SDDBT,16.000000,f,4.880000,M,2.670000,F*6
$GPGGA,123946.000000,18.00000000.864000,N,67.000000010.780000,W,2,10,0.6,791.6,M,-32.8,M,,*50
$SDDBT,15.000000,f,4.570000,M,2.500000,F*3
$GPGGA,123947.000000,18.00000000.891000,N,67.000000010.778000,W,2,10,0.6,791.6,M,-32.8,M,,*5C
$SDDBT,16.000000,f,4.880000,M,2.670000,F*6
$GPGGA,123948.000000,18.00000000.921000,N,67.000000010.775000,W,2,10,0.6,791.6,M,-32.8,M,,*54
$SDDBT,16.000000,f,4.880000,M,2.670000,F*6
$GPGGA,123949.000000,18.00000000.950000,N,67.000000010.765000,W,2,10,0.6,791.6,M,-32.8,M,,*52
$SDDBT,16.000000,f,4.880000,M,2.670000,F*6
$GPGGA,123950.000000,18.00000000.982000,N,67.000000010.760000,W,2,10,0.6,791.6,M,-32.8,M,,*50
$SDDBT,16.000000,f,4.880000,M,2.670000,F*6
$GPGGA,123951.000000,18.00000001.011000,N,67.000000010.755000,W,2,10,0.6,791.6,M,-32.8,M,,*55
$SDDBT,16.000000,f,4.880000,M,2.670000,F*6
$GPGGA,123952.000000,18.00000001.043000,N,67.000000010.747000,W,2,10,0.6,791.6,M,-32.8,M,,*52
$SDDBT,15.000000,f,4.570000,M,2.500000,F*3
$GPGGA,123953.000000,18.00000001.077000,N,67.000000010.747000,W,2,10,0.6,791.6,M,-32.8,M,,*54
$SDDBT,17.000000,f,5.180000,M,2.830000,F*5
$GPGGA,123954.000000,18.00000001.112000,N,67.000000010.739000,W,2,10,0.6,791.6,M,-32.8,M,,*58
$SDDBT,17.000000,f,5.180000,M,2.830000,F*5
$GPGGA,123955.000000,18.00000001.153000,N,67.000000010.739000,W,2,10,0.6,791.6,M,-32.8,M,,*5C
$SDDBT,16.000000,f,4.880000,M,2.670000,F*6
$GPGGA,123956.000000,18.00000001.185000,N,67.000000010.742000,W,2,10,0.6,791.6,M,-32.8,M,,*58
$SDDBT,16.000000,f,4.880000,M,2.670000,F*6
